fournisseur;ID_fournisseurs;Nom de l'agence;CP;ville;Latitude ville;Longitude ville;region;Pays;adresse complete;latitude (fournisseur);longitude (fournisseur);Email;Produit 
LOXAM ;Lo;CORNER LOXAM - STARMAT ADMC;91000;AVRAINVILLE;48.5623782;2.247154;ILE DE FRANCE;France ;Route Departementale 449, 91630, France;48.560433;2.282966;mounir.amraoui@loxam.fr;PETITS ENGINS
LOXAM ;Lo;LOXAM RENTAL FONTENAY TRESIGNY;77000;FONTENAY TRESIGNY;48.7100369;2.8722456;ILE DE FRANCE;France ;Z.A.E. Fregy, 77610, France;48.702312;2.88131;mounir.amraoui@loxam.fr;PETITS ENGINS
LOXAM ;Lo;CREMAILLÈRES LOXAM LAHO TEC;93000;BOBIGNY;48.906387;2.4452231;ILE DE FRANCE;France ;109, rue Benoit Frachon, 93000, France;48.901568;2.429485;mounir.amraoui@loxam.fr;PETITS ENGINS
LOXAM ;Lo;LOXAM ACCESS PARIS NORD AULNAY;93000;AULNAY SOUS BOIS;48.934231;2.499789;ILE DE FRANCE;France ;4 Rue Jean Chaptal - ZI De La Garenne, 93600, France;48.94483056;2.483931887;mounir.amraoui@loxam.fr;PETITS ENGINS
LOXAM ;Lo;LOXAM ACCESS PARIS SUD CHILLY;91000;CHILLY MAZARIN;48.7026161;2.3123582;ILE DE FRANCE;France ;14 Bis Rue Denis Papin - ZA La Vigne Aux Loups, 91380, France;48.7084368;2.3040912;mounir.amraoui@loxam.fr;PETITS ENGINS
LOXAM ;Lo;CORNER LOXAM - STARMAT LE HOLLOCO;95000;EZANVILLE;49.031707;2.361889;ILE DE FRANCE;France ;12 avenue Jean Rostand, 95460, France;49.038003;2.342081;mounir.amraoui@loxam.fr;PETITS ENGINS
LOXAM ;Lo;CORNER LOXAM - STARMAT L'ISLE ADAM;95000;L'ISLE ADAM;49.1125294;2.2186324;ILE DE FRANCE;France ;3 avenue Napoleon 1er, 95290, France;49.127439;2.242507;mounir.amraoui@loxam.fr;PETITS ENGINS
LOXAM ;Lo;CORNER LOXAM - STARMAT HERBLAY;95000;HERBLAY;48.9898588;2.166162;ILE DE FRANCE;France ;403 route de conflans, 95220, France;49.00426005;2.1284155;mounir.amraoui@loxam.fr;PETITS ENGINS
LOXAM ;Lo;LOXAM CITY REPUBLIQUE;75000;PARIS;48.8534951;2.3483915;ILE DE FRANCE;France ;121 Boulevard Richard Lenoir, 75011, France;48.8656592;2.3692127;mounir.amraoui@loxam.fr;PETITS ENGINS
LOXAM ;Lo;LOXAM CITY PORTE DOREE;75000;PARIS;48.8534951;2.3483915;ILE DE FRANCE;France ;59 Boulevard Poniatowski, 75012, France;48.8332838;2.4012371;mounir.amraoui@loxam.fr;PETITS ENGINS
LOXAM ;Lo;LOXAM ACCESS PARIS SUD BONDOUFLE;91000;BONDOUFLE;48.6103845;2.3655279;ILE DE FRANCE;France ;22 bis rue Gustave Eiffel, 91070, France;48.622516;2.37635;mounir.amraoui@loxam.fr;PETITS ENGINS
LOXAM ;Lo;CORNER LOXAM - BRICOR MAULE;78000;MAULE;48.9079595;1.8505364;ILE DE FRANCE;France ;59 Boulevard Paul Barre, 78580, France;48.9120152;1.8531873;mounir.amraoui@loxam.fr;PETITS ENGINS
LOXAM ;Lo;CORNER LOXAM - STARMAT ARCUEIL;94000;ARCUEIL;48.8064996;2.3366502;ILE DE FRANCE;France ;81 Avenue Paul Vaillant Couturier, 94110, France;48.798651;2.346078;mounir.amraoui@loxam.fr;PETITS ENGINS
LOXAM ;Lo;CORNER LOXAM - BRICORAMA NEMOURS;77000;NEMOURS;48.2385017;2.7820919;ILE DE FRANCE;France ;21 Rue d'Egreville, 77140, France;48.264775;2.715494;mounir.amraoui@loxam.fr;PETITS ENGINS
LOXAM ;Lo;CORNER LOXAM - BRICOMARCHE VILLENEUVE;94000;VILLENEUVE LE ROI;48.7350308;2.4077003;ILE DE FRANCE;France ;32 Avenue le Foll, 94290, France;48.7301264;2.430354421;mounir.amraoui@loxam.fr;PETITS ENGINS
LOXAM ;Lo;CORNER LOXAM - BRICORAMA ORGEVAL;78000;ORGEVAL;48.9175;1.96982;ILE DE FRANCE;France ;Route de Quarante Sous, 78630, France;48.93289039;1.966982432;mounir.amraoui@loxam.fr;PETITS ENGINS
LOXAM ;Lo;CORNER LOXAM - BRICORAMA VILLIERS;94000;VILLIERS SUR MARNE;48.8262055;2.5406696;ILE DE FRANCE;France ;ZAC, Chemin des Boutareines, 94350, France;48.825959;2.545205;mounir.amraoui@loxam.fr;PETITS ENGINS
LOXAM ;Lo;CORNER LOXAM - BRICORAMA RAMBOUILLET;78000;RAMBOUILLET;48.6452851;1.819207;ILE DE FRANCE;France ;26 Rue Gustave Eiffel, 78120, France;48.62693875;1.825694421;mounir.amraoui@loxam.fr;PETITS ENGINS
LOXAM ;Lo;CORNER LOXAM - GEDIMAT ECUELLES;77000;ECUELLES;48.352101;2.7936471;ILE DE FRANCE;France ;29 Avenue de Sens, 77250, France;48.3706124;2.8290641;mounir.amraoui@loxam.fr;PETITS ENGINS
LOXAM ;Lo;CORNER LOXAM - CASTORAMA VILLABE;91000;VILLABE;48.5885996;2.4544951;ILE DE FRANCE;France ;ZAC des Brateaux - 1 rue de la Plaine, 91100, France;48.58842;2.44496;mounir.amraoui@loxam.fr;PETITS ENGINS
LOXAM ;Lo;CORNER LOXAM - BRICOCASH MORMANT;77000;MORMANT;48.6136858;2.8889649;ILE DE FRANCE;France ;rue Lavoisier, 77720, France;48.61365502;2.881806275;mounir.amraoui@loxam.fr;PETITS ENGINS
LOXAM ;Lo;CORNER LOXAM - BRICOMARCHE DOURDAN;91000;DOURDAN;48.5288442;2.0153689;ILE DE FRANCE;France ;42 rue Raymond Laubier, 91410, France;48.527135;2.020990597;mounir.amraoui@loxam.fr;PETITS ENGINS
LOXAM ;Lo;CORNER LOXAM - WELDOM ONCY SUR ECOLE;91000;ONCY SURECOLE;48.383062;2.4697864;ILE DE FRANCE;France ;Grande Rue, 91490, France;48.38881308;2.470104082;mounir.amraoui@loxam.fr;PETITS ENGINS
LOXAM ;Lo;CORNER LOXAM - WELDOM BREUILLET;91000;BREUILLET;48.5668797;2.1729461;ILE DE FRANCE;France ;2 rue du Buisson Rondeau, 91650, France;48.5687476;2.164083174;mounir.amraoui@loxam.fr;PETITS ENGINS
LOXAM ;Lo;CORNER LOXAM - CASTORAMA MELUN;77000;MELUN;48.539927;2.6608169;ILE DE FRANCE;France ;Z.a.c du champs de foire, 77000, France;48.5346163;2.6570682;mounir.amraoui@loxam.fr;PETITS ENGINS
LOXAM ;Lo;CORNER LOXAM - CASTORAMA GONESSE;95000;GONESSE;48.9863555;2.4500537;ILE DE FRANCE;France ;Z.I. De Paris Nord Ii, 95700, France;49.0764935;2.5613607;mounir.amraoui@loxam.fr;PETITS ENGINS
LOXAM ;Lo;CORNER LOXAM - BRICORAMA MAREUIL;77000;MAREUIL LES MEAUX;48.9267289;2.8634773;ILE DE FRANCE;France ;10 Avenue de la Haute Borne, 77100, France;48.94015741;2.877620849;mounir.amraoui@loxam.fr;PETITS ENGINS
LOXAM ;Lo;LOXAM CITY SÈVRES;92000;SEVRES;48.8247407;2.2127083;ILE DE FRANCE;France ;9 Grande Rue, 92310, France;48.82702;2.222061;mounir.amraoui@loxam.fr;PETITS ENGINS
LOXAM ;Lo;LOXAM CITY PORTE D'ASNIÈRES;75000;PARIS;48.8534951;2.3483915;ILE DE FRANCE;France ;204 Boulevard Malesherbes, 75017, France;48.8897729;2.3041953;mounir.amraoui@loxam.fr;PETITS ENGINS
LOXAM ;Lo;LOXAM CITY NOISY-LE-SEC;93000;NOISY LE SEC;48.8897751;2.4516055;ILE DE FRANCE;France ;74 rue de Paris, 93130, France;48.900336;2.452852;mounir.amraoui@loxam.fr;PETITS ENGINS
LOXAM ;Lo;LOXAM FORMATION;93000;AULNAY SOUS BOIS;48.934231;2.499789;ILE DE FRANCE;France ;2 rue Jean Chaptal - ZI La Garenne, 93600, France;48.945954;2.482742;mounir.amraoui@loxam.fr;PETITS ENGINS
LOXAM ;Lo;LOXAM NEMOURS;77000;NEMOURS;48.2385017;2.7820919;ILE DE FRANCE;France ;Route De Lyon, 77140, France;48.3061;2.6841;mounir.amraoui@loxam.fr;PETITS ENGINS
LOXAM ;Lo;LOXAM CITY PORTE DE ST-CLOUD;92000;BOULOGNE BILLANCOURT;48.8356649;2.240206;ILE DE FRANCE;France ;3 route de la Reine, Manquant, France;48.83853;2.251552;mounir.amraoui@loxam.fr;PETITS ENGINS
LOXAM ;Lo;LOXAM CITY PORTE DE CLIGNANCOURT;75000;PARIS;48.8534951;2.3483915;ILE DE FRANCE;France ;67 boulevard Ney, 75018, France;48.8976745;2.3397913;mounir.amraoui@loxam.fr;PETITS ENGINS
LOXAM ;Lo;LOXAM CITY PORTE DE BRANCION;75000;PARIS;48.8534951;2.3483915;ILE DE FRANCE;France ;3 avenue de la Porte Brancion, 75015, France;48.827449;2.301282;mounir.amraoui@loxam.fr;PETITS ENGINS
LOXAM ;Lo;LOXAM CITY BATIGNOLLES;75000;PARIS;48.8534951;2.3483915;ILE DE FRANCE;France ;149 rue de Rome, Manquant, France;48.886434;2.31573;mounir.amraoui@loxam.fr;PETITS ENGINS
LOXAM ;Lo;LOXAM CITY GRENELLE;75000;PARIS;48.8534951;2.3483915;ILE DE FRANCE;France ;95 boulevard de Grenelle, Manquant, France;48.849803;2.296297;mounir.amraoui@loxam.fr;PETITS ENGINS
LOXAM ;Lo;LOXAM ROSNY SOUS BOIS;93000;ROSNY SOUS BOIS;48.8716626;2.4875193;ILE DE FRANCE;France ;89 Boulevard Alsace Lorraine, 93110, France;48.884545;2.484486;mounir.amraoui@loxam.fr;PETITS ENGINS
LOXAM ;Lo;LOXAM MORANGIS;91000;MORANGIS;48.7022956;2.3367599;ILE DE FRANCE;France ;6 avenue Gay Lussac - ZI Val - Angle, 91420, France;48.703696;2.341292;mounir.amraoui@loxam.fr;PETITS ENGINS
LOXAM ;Lo;LOXAM CITY MONTPARNASSE;75000;PARIS;48.8534951;2.3483915;ILE DE FRANCE;France ;50 Boulevard Pasteur, 75015, France;48.8413584;2.3134643;mounir.amraoui@loxam.fr;PETITS ENGINS
LOXAM ;Lo;LOXAM ROISSY;95000;ROISSY;49.0068908;2.571082;ILE DE FRANCE;France ;6 Route De L'arpenteur - Zone Flexitech, 95700, France;49.01207422;2.517416966;mounir.amraoui@loxam.fr;PETITS ENGINS
LOXAM ;Lo;LOXAM COIGNIÈRES;78000;COIGNIERES;48.7671468;1.9193679;ILE DE FRANCE;France ;28 Avenue De La Gare, 78310, France;48.742712;1.917191;mounir.amraoui@loxam.fr;PETITS ENGINS
LOXAM ;Lo;LOXAM ATHIS-MONS;91000;ATHIS MONS;48.7079878;2.3888044;ILE DE FRANCE;France ;2 Rue du Jacanna - ZI, 91200, France;48.709244;2.386605;mounir.amraoui@loxam.fr;PETITS ENGINS
LOXAM ;Lo;LOXAM LES MUREAUX;78000;LES MUREAUX;48.9931578;1.909928;ILE DE FRANCE;France ;7 Rue Descartes - ZI Des Garennes, 78130, France;48.982224;1.893535;mounir.amraoui@loxam.fr;PETITS ENGINS
LOXAM ;Lo;LOXAM ARPAJON;91000;ARPAJON;48.5902899;2.2477303;ILE DE FRANCE;France ;30 Chemin De Chevreuse - ZA Les Belles Vues 3, 91290, France;48.8849169;2.2050476;mounir.amraoui@loxam.fr;PETITS ENGINS
LOXAM ;Lo;LOXAM AULNAY SOUS BOIS;93000;AULNAY SOUS BOIS;48.934231;2.499789;ILE DE FRANCE;France ;10 Rue Jean Chaptal - ZI De La Garenne, 93600, France;48.945664;2.483422;mounir.amraoui@loxam.fr;PETITS ENGINS
LOXAM ;Lo;LOXAM PORTE DE BAGNOLET;93000;MONTREUIL;48.8623357;2.4412184;ILE DE FRANCE;France ;202 Boulevard Chanzy, 93100, France;48.8596602;2.423866;mounir.amraoui@loxam.fr;PETITS ENGINS
LOXAM ;Lo;LOXAM MANTES LA JOLIE;78000;LIMAY;48.9921015;1.7353686;ILE DE FRANCE;France ;10 rue Fernand Forest, 78520, France;48.989507;1.757993;mounir.amraoui@loxam.fr;PETITS ENGINS
LOXAM ;Lo;LOXAM NANTERRE;92000;NANTERRE;48.8924273;2.2071267;ILE DE FRANCE;France ;2 Rue Lavoisier, 92000, France;48.885895;2.23466;mounir.amraoui@loxam.fr;PETITS ENGINS
LOXAM ;Lo;LOXAM VELIZY;78000;VELIZY VILLACOUBLAY;48.7809496;2.1900052;ILE DE FRANCE;France ;63 Avenue De L'europe, 78140, France;48.7788607;2.2086485;mounir.amraoui@loxam.fr;PETITS ENGINS
LOXAM ;Lo;LOXAM MELUN LE MEE;77000;LE MEE SUR SEINE;48.5408681;2.6262121;ILE DE FRANCE;France ;Rue Jean Baptiste Colbert, 77350, France;48.55187172;2.630854392;mounir.amraoui@loxam.fr;PETITS ENGINS
LOXAM ;Lo;CORNER LOXAM - MR.BRICOLAGE ANGERVILLE;91000;ANGERVILLE;48.3106704;1.9979775;ILE DE FRANCE;France ;8 Rue des Artisans, 91670, France;48.3172994;2.0020053;mounir.amraoui@loxam.fr;PETITS ENGINS
LOXAM ;Lo;CORNER LOXAM - BRICOMARCHE VILLECRESNES;94000;VILLECRESNES;48.7208822;2.5327265;ILE DE FRANCE;France ;54 Rue de Brunoy, 94440, France;48.708269;2.52924;mounir.amraoui@loxam.fr;PETITS ENGINS
LOXAM ;Lo;CORNER LOXAM - BRICOMARCHE MAULETTE;78000;MAULETTE;48.7914601;1.6207519;ILE DE FRANCE;France ;Route de Gambais, 78550, France;48.80028868;1.670401128;mounir.amraoui@loxam.fr;PETITS ENGINS
LOXAM ;Lo;CORNER LOXAM - BRICOMARCHE MILLY;91000;MILLY LA FORET;48.4030;2.4643;ILE DE FRANCE;France ;ZA du Chenet - 4 Rue Des Ormes, 91490, France;48.39749565;2.419667381;mounir.amraoui@loxam.fr;PETITS ENGINS
LOXAM ;Lo;CORNER LOXAM - LEROY MERLIN MADELEINE;75000;PARIS;48.8534951;2.3483915;ILE DE FRANCE;France ;Place de La Madeleine, 75008, France;48.87010945;2.323955075;mounir.amraoui@loxam.fr;PETITS ENGINS
LOXAM ;Lo;CORNER LOXAM - MR.BRICOLAGE ACHÈRES;78000;ACHERES;48.9606321;2.0698106;ILE DE FRANCE;France ;Rue W. A. Mozart - ZAC du Chemin neuf, 78260, France;48.971799;2.090038;mounir.amraoui@loxam.fr;PETITS ENGINS
LOXAM ;Lo;CORNER LOXAM - LEROY MERLIN ROSA PARKS;75000;PARIS;48.8534951;2.3483915;ILE DE FRANCE;France ;159 boulevard Macdonald, 75019, France;48.8989112;2.3770354;mounir.amraoui@loxam.fr;PETITS ENGINS
LOXAM ;Lo;CORNER LOXAM - MR.BRICOLAGE COULOMMIERS;77000;COULOMMIERS;48.8204017;3.2494033;ILE DE FRANCE;France ;3 Boulevard De La Marne, 77120, France;48.8034528;3.0889484;mounir.amraoui@loxam.fr;PETITS ENGINS
LOXAM ;Lo;LOXAM ARGENTEUIL;95000;ARGENTEUIL;48.9479069;2.2481797;ILE DE FRANCE;France ;176 Route de Pontoise, 95100, France;48.951212;2.205858;mounir.amraoui@loxam.fr;PETITS ENGINS
LOXAM ;Lo;LOXAM GENNEVILLIERS;92000;GENNEVILLIERS;48.9254221;2.2940122;ILE DE FRANCE;France ;89 Rue Des Caboeufs, 92230, France;48.9262372;2.3054767;mounir.amraoui@loxam.fr;PETITS ENGINS
LOXAM ;Lo;LOXAM PARIS QUAI D'IVRY;94000;IVRY SUR SEINE;48.8122302;2.3872525;ILE DE FRANCE;France ;53 Quai Auguste Deshaies, 94200, France;48.8178909;2.402854;mounir.amraoui@loxam.fr;PETITS ENGINS
LOXAM ;Lo;LOXAM EPINAY / SEINE;93000;EPINAY SUR SEINE;48.95861;2.30361;ILE DE FRANCE;France ;129/133 Avenue De Lattre De Tassigny, 93800, France;48.95477636;2.312588608;mounir.amraoui@loxam.fr;PETITS ENGINS
LOXAM ;Lo;LOXAM RENTAL MEAUX;77000;MEAUX;48.9582708;2.8773541;ILE DE FRANCE;France ;10 Rue Jacques Daguerre, 77100, France;48.965539;2.915664;mounir.amraoui@loxam.fr;PETITS ENGINS
LOXAM ;Lo;LOXAM CITY AUBERVILLIERS;93000;AUBERVILLIERS;48.9146078;2.3821895;ILE DE FRANCE;France ;55 Bd Felix Faure - Parc du Mauvin, 93300, France;48.903997;2.382632;mounir.amraoui@loxam.fr;PETITS ENGINS
LOXAM ;Lo;LOXAM GRAND PARIS;92000;BAGNEUX;48.795056;2.3027323;ILE DE FRANCE;France ;134 avenue Aristide Briand, 92220, France;48.7984257;2.322254;mounir.amraoui@loxam.fr;PETITS ENGINS
LOXAM ;Lo;LOXAM RENTAL GOUSSAINVILLE CDG;95000;GOUSSAINVILLE;49.0323168;2.4733628;ILE DE FRANCE;France ;87 Bd General De Gaulle, 95190, France;49.02434153;2.472470865;mounir.amraoui@loxam.fr;PETITS ENGINS
LOXAM ;Lo;LOXAM RENTAL STE GENEVIÈVE;91000;SAINTE GENEVIEVE DES BOIS;48.6407872;2.3259129;ILE DE FRANCE;France ;9, rue du Petit Fief - ZAC Croix Blanche, 91700, France;48.623087;2.340174;mounir.amraoui@loxam.fr;PETITS ENGINS
LOXAM ;Lo;CORNER LOXAM - WELDOM ETAMPES;91000;ETAMPES;48.4344621;2.1614464;ILE DE FRANCE;France ;50 Rue des Lys, 91150, France;48.4404147;2.1368863;mounir.amraoui@loxam.fr;PETITS ENGINS
LOXAM ;Lo;CORNER LOXAM - LM STE GENEVIÈVE;91000;SAINTE GENEVIEVE DES BOIS;48.6407872;2.3259129;ILE DE FRANCE;France ;avenue Des Hurepoix, 91700, France;48.639978;2.341103;mounir.amraoui@loxam.fr;PETITS ENGINS
LOXAM ;Lo;CORNER LOXAM - LM LOGNES;77000;LOGNES;48.8384157;2.632722;ILE DE FRANCE;France ;boulevard Du Segrais, 77185, France;48.83498176;2.653618587;mounir.amraoui@loxam.fr;PETITS ENGINS
LOXAM ;Lo;CORNER LOXAM - LM MONTIGNY;95000;MONTIGNY LES CORMEILLES;48.98333;2.18333;ILE DE FRANCE;France ;45 boulevard Victor Bordier, 95370, France;48.990842;2.202017;mounir.amraoui@loxam.fr;PETITS ENGINS
LOXAM ;Lo;CORNER LOXAM - LM VITRY-SUR-SEINE;94000;VITRY SUR SEINE;48.7876;2.39164;ILE DE FRANCE;France ;52 boulevard De Stalingrad, 94400, France;48.7975907;2.3833227;mounir.amraoui@loxam.fr;PETITS ENGINS
LOXAM ;Lo;CORNER LOXAM - CASTORAMA CLICHY;75000;PARIS;48.8534951;2.3483915;ILE DE FRANCE;France ;2 Rue Forest, 75018, France;48.8849257;2.3294971;mounir.amraoui@loxam.fr;PETITS ENGINS
LOXAM ;Lo;CORNER LOXAM - CASTORAMA CLAYE;77000;CLAYE SOUILLY;48.9986182;2.8504604;ILE DE FRANCE;France ;Rue Jean Monnet, 77410, France;48.95338792;2.663473612;mounir.amraoui@loxam.fr;PETITS ENGINS
LOXAM ;Lo;CORNER LOXAM - LM DAUMESNIL;75000;PARIS;48.8534951;2.3483915;ILE DE FRANCE;France ;139 avenue Daumesnil, 75012, France;48.8433004;2.3840137;mounir.amraoui@loxam.fr;PETITS ENGINS
LOXAM ;Lo;CORNER LOXAM - LM BEAUBOURG;75000;PARIS;48.8534951;2.3483915;ILE DE FRANCE;France ;52 rue Rambuteau, 75003, France;48.861547;2.3521334;mounir.amraoui@loxam.fr;PETITS ENGINS
LOXAM ;Lo;CORNER LOXAM - LM ROSNY;93000;ROSNY SOUS BOIS;48.8716626;2.4875193;ILE DE FRANCE;France ;7 rue De Lisbonne - Zac De Nanteuil, 93110, France;48.88046;2.473529;mounir.amraoui@loxam.fr;PETITS ENGINS
LOXAM ;Lo;CORNER LOXAM - LM MADELEINE;75000;PARIS;48.8534951;2.3483915;ILE DE FRANCE;France ;Place de La Madeleine, 75008, France;48.87010945;2.323955075;mounir.amraoui@loxam.fr;PETITS ENGINS
LOXAM ;Lo;CORNER LOXAM - MR.BRICOLAGE ACHÈRES;78000;ACHERES;48.9606321;2.0698106;ILE DE FRANCE;France ;Rue W.A. Mozart - ZAC Chemin neuf, 78260, France;48.971799;2.090038;mounir.amraoui@loxam.fr;PETITS ENGINS
LOXAM ;Lo;CORNER LOXAM - LM ROSA PARKS;75000;PARIS;48.8534951;2.3483915;ILE DE FRANCE;France ;159 boulevard Macdonald, 75019, France;48.8989112;2.3770354;mounir.amraoui@loxam.fr;PETITS ENGINS
LOXAM ;Lo;LOXAM TRAPPES;78000;TRAPPES;48.7760957;1.9988356;ILE DE FRANCE;France ;50 Rue Roger Hennequin, 78190, France;48.763755;1.983843;mounir.amraoui@loxam.fr;PETITS ENGINS
LOXAM ;Lo;LOXAM CHELLES;77000;CHELLES;48.8783804;2.590549;ILE DE FRANCE;France ;44 Avenue De La Trentaine, 77500, France;48.869055;2.601681;mounir.amraoui@loxam.fr;PETITS ENGINS
LOXAM ;Lo;LOXAM MONTEREAU;77000;MONTEREAU FAULT YONNE;48.3849647;2.9557006;ILE DE FRANCE;France ;12 Rue Des Clomarts, 77130, France;48.387783;2.968121;mounir.amraoui@loxam.fr;PETITS ENGINS
LOXAM ;Lo;CORNER LOXAM - CASTO CLAYES SOUS BOIS;78000;LES CLAYES SOUS BOIS;48.8214478;1.9871825;ILE DE FRANCE;France ;ZI du Chemin des Eaux, 78340, France;48.818641;1.98406;mounir.amraoui@loxam.fr;PETITS ENGINS
LOXAM ;Lo;CORNER LOXAM - CASTO ORMESSON;94000;CHENNEVIERES SUR MARNE;48.7965001;2.530442;ILE DE FRANCE;France ;CC Pince Vent - ZAC De L'Hippodrome, 94430, France;48.79765;2.541576;mounir.amraoui@loxam.fr;PETITS ENGINS
LOXAM ;Lo;CORNER LOXAM - CASTO COIGNIÈRES;78000;COIGNIERES;48.7671468;1.9193679;ILE DE FRANCE;France ;Rue des Louveries - RN 10, 78310, France;48.75152763;1.926228126;mounir.amraoui@loxam.fr;PETITS ENGINS
LOXAM ;Lo;CORNER LOXAM - CASTO PIERRELAYE;95000;PIERRELAYE;49.0232238;2.1557343;ILE DE FRANCE;France ;ZAC Butte Petites Vignes, 95480, France;49.019728;2.161272;mounir.amraoui@loxam.fr;PETITS ENGINS
LOXAM ;Lo;CORNER LOXAM - CASTO CORMEILLES;95000;CORMEILLESEN PARISIS;48.9759637;2.1998877;ILE DE FRANCE;France ;ZAC Bois Rochefort - Bd Joffre, 95240, France;48.968225;2.199214;mounir.amraoui@loxam.fr;PETITS ENGINS
LOXAM ;Lo;LOXAM CITY AURIOL;75000;PARIS;48.8534951;2.3483915;ILE DE FRANCE;France ;120, boulevard Vincent Auriol, 75013, France;48.83338;2.3627273;mounir.amraoui@loxam.fr;PETITS ENGINS
LOXAM ;Lo;CORNER LOXAM - CASTO LEVALLOIS;92000;LEVALLOIS PERRET;48.892956;2.2881683;ILE DE FRANCE;France ;4 rue Henri Barbusse, 92300, France;48.8911947;2.2904283;mounir.amraoui@loxam.fr;PETITS ENGINS
LOXAM ;Lo;CORNER LOXAM - LM SAINT-DENIS;93000;SAINT DENIS;48.9383732;2.3627508;ILE DE FRANCE;France ;rue Henri Delaunay - Zac Cornillon, 93200, France;48.93395;2.359445;mounir.amraoui@loxam.fr;PETITS ENGINS
LOXAM ;Lo;CORNER LOXAM - LM RUEIL-MALMAISON;92000;RUEIL MALMAISON;48.87778;2.1802832;ILE DE FRANCE;France ;58 av De Fouilleuse - CC Hauts de Rueil, 92500, France;48.862415;2.1940046;mounir.amraoui@loxam.fr;PETITS ENGINS
LOXAM ;Lo;CORNER LOXAM - LM SAINT-OUEN;93000;SAINT OUEN;48.911729;2.334267;ILE DE FRANCE;France ;2 boulevard Victor Hugo, 93400, France;48.9124193;2.3339687;mounir.amraoui@loxam.fr;PETITS ENGINS
LOXAM ;Lo;CORNER LOXAM - LM BOIS-D'ARCY;78000;BOIS D'ARCY;48.799856;2.023607;ILE DE FRANCE;France ;avenue Fritz Lang - Zac Croix Bonnet, 78390, France;48.804418;2.019113;mounir.amraoui@loxam.fr;PETITS ENGINS
LOXAM ;Lo;CORNER LOXAM - LM MONTSOULT;95000;MONTSOULT;49.0704484;2.312001;ILE DE FRANCE;France ;route Nationale 1 - Zi Du Belloy, 95560, France;49.066447;2.298185;mounir.amraoui@loxam.fr;PETITS ENGINS
LOXAM ;Lo;LOXAM CITY BOULOGNE;92000;BOULOGNE BILLANCOURT;48.8356649;2.240206;ILE DE FRANCE;France;46 Boulevard de la République, 92100, France;48.8359;2.2413;mounir.amraoui@loxam.fr;PETITS ENGINS
LOXAM ;Lo;LOXAM ACCESS PARIS NORD MITRY;77000;MITRY MORY;48.9839674;2.6183971;ILE DE FRANCE;France;7 Rue René Cassin, 77290, France;48.9835;2.6184;mounir.amraoui@loxam.fr;PETITS ENGINS
LOXAM ;Lo;CORNER LOXAM - BRICORAMA VIRY;91000;VIRY CHATILLON;48.67211;2.39318;ILE DE FRANCE;France;106-108 Avenue du Général de Gaulle, 91170, France;48.6716;2.3774;mounir.amraoui@loxam.fr;PETITS ENGINS
LOXAM ;Lo;CORNER LOXAM - BRICORAMA BOULOGNE;92000;BOULOGNE BILLANCOURT;48.8356649;2.240206;ILE DE FRANCE;France;701 Avenue du Général Leclerc, 92100, France;48.8350;2.2389;mounir.amraoui@loxam.fr;PETITS ENGINS
LOXAM ;Lo;CORNER LOXAM - WELDOM CARRIÈRES;78000;CARRIERES SUR SEINE;48.9134112;2.1779083;ILE DE FRANCE;France;11 avenue du Maréchal Juin, 78420, France;48.9090;2.1895;mounir.amraoui@loxam.fr;PETITS ENGINS
LOXAM ;Lo;CORNER LOXAM - STARMAT MONTREUIL;93000;MONTREUIL;48.8623357;2.4412184;ILE DE FRANCE;France;188 boulevard de la Boissière, 93100, France;48.8647;2.4572;mounir.amraoui@loxam.fr;PETITS ENGINS
LOXAM ;Lo;CORNER LOXAM - CASTORAMA VELIZY;78000;VELIZY VILLACOUBLAY;48.7809496;2.1900052;ILE DE FRANCE;France;Rue andré citroen - ZA VELIZY, 78140, France;48.7803;2.2092;mounir.amraoui@loxam.fr;PETITS ENGINS
LOXAM ;Lo;LOXAM CITY MIN RUNGIS;94000;CHEVILLY LARUE;48.7714153;2.3469255;ILE DE FRANCE;France;112 avenue de la Cité - Bâtiment H5, 94550, France;48.7485;2.3538;mounir.amraoui@loxam.fr;PETITS ENGINS
LOXAM ;Lo;LOXAM CITY PORTE DE PANTIN;75000;PARIS;48.8534951;2.3483915;ILE DE FRANCE;France;176 Avenue Jean Jaurès, 75019, France;48.8895;2.3921;mounir.amraoui@loxam.fr;PETITS ENGINS
LOXAM ;Lo;LOXAM WISSOUS;91000;WISSOUS ;48.7316381;2.3268669;ILE DE FRANCE;France;31 avenue Ampère, 91320, France;48.7318;2.3277;mounir.amraoui@loxam.fr;PETITS ENGINS
LOXAM ;Lo;LOXAM CITY PARIS 14È;75000;PARIS;48.8534951;2.3483915;ILE DE FRANCE;France;132 avenue du Général Leclerc, 75014, France;48.8339;2.3258;mounir.amraoui@loxam.fr;PETITS ENGINS
LOXAM ;Lo;LOXAM CITY NATION;75000;PARIS;48.8534951;2.3483915;ILE DE FRANCE;France;49 Rue des Pyrénées, 75020, France;48.8556;2.4023;mounir.amraoui@loxam.fr;PETITS ENGINS
LOXAM ;Lo;CORNER LOXAM - LEROY MERLIN OSNY;95000;OSNY;49.0660487;2.0614598;ILE DE FRANCE;France;Ch. Du Poirier Charles Guérin - CC De L'Oseraie, 95520, France;49.0580;2.0604;mounir.amraoui@loxam.fr;PETITS ENGINS
LOXAM ;Lo;LOXAM ETAMPES;91000;ETAMPES;48.4344621;2.1614464;ILE DE FRANCE;France;4 Avenue De La Sablière, 91150, France;48.4352;2.1620;mounir.amraoui@loxam.fr;PETITS ENGINS
LOXAM ;Lo;LOXAM PIERRELAYE;95000;PIERRELAYE;49.0232238;2.1557343;ILE DE FRANCE;France;2 Avenue Du Général Leclerc, 95480, France;49.0217;2.1553;mounir.amraoui@loxam.fr;PETITS ENGINS
LOXAM ;Lo;CORNER LOXAM - MR.BRICOLAGE PARIS 14;75000;PARIS;48.8534951;2.3483915;ILE DE FRANCE;France;68-80 Avenue du Maine - Ateliers Gaîté, 75014, France;48.8397;2.3215;mounir.amraoui@loxam.fr;PETITS ENGINS
LOXAM ;Lo;CORNER LOXAM - LEROY MERLIN GONESSE;95000;GONESSE;48.9863555;2.4500537;ILE DE FRANCE;France;1 rond point De La Croix Saint-Benoît, 95500, France;48.9910;2.4495;mounir.amraoui@loxam.fr;PETITS ENGINS
LOXAM ;Lo;CORNER LOXAM - BEAUVALLET BLANDINE;91000;GUILLERVAL;48.3745373;2.0599606;ILE DE FRANCE;France;Rue du Triquoir - ZAC de la Géode 2, 91690, France;48.3643;2.1315;mounir.amraoui@loxam.fr;PETITS ENGINS
LOXAM ;Lo;LOXAM CITY PORTE DES LILAS;75000;PARIS;48.8534951;2.3483915;ILE DE FRANCE;France;67 Boulevard Sérurier, 75019, France;48.8782;2.4083;mounir.amraoui@loxam.fr;PETITS ENGINS
LOXAM ;Lo;LOXAM SARCELLE N1 (GROSLAY);95000;GROSLAY;48.9867112;2.3458615;ILE DE FRANCE;France;1 Route Nationale de Paris à Calais (RN 1), 95410, France;48.9863;2.3489;mounir.amraoui@loxam.fr;PETITS ENGINS
LOXAM ;Lo;LOXAM LAGNY;77000;SAINT THIBAULT DES VIGNES;48.8692;2.6806;ILE DE FRANCE;France;5 rue des Marmousets - ZI Courtillière, 77400, France;48.8712;2.6836;mounir.amraoui@loxam.fr;PETITS ENGINS
LOXAM ;Lo;LOXAM RENTAL VILLENEUVE ST GEORGES;94000;VILLENEUVE SAINT GEORGES;48.7305272;2.44782;ILE DE FRANCE;France;Rue des Prés de l'Hôpital - ZI Graviers, 94194, France;48.7321;2.4493;mounir.amraoui@loxam.fr;PETITS ENGINS
LOXAM ;Lo;LOXAM RENTAL CONFLANS;78000;CONFLANS SAINTE HONORINE;48.9938791;2.0949768;ILE DE FRANCE;France;7 rue de l'Activité, 78700, France;48.9983;2.0956;mounir.amraoui@loxam.fr;PETITS ENGINS
LOXAM ;Lo;LOXAM RENTAL COLLEGIEN;77000;COLLEGIEN;48.8362114;2.673176;ILE DE FRANCE;France;31 Allée du Clos des Charmes, 77090, France;48.8398;2.6754;mounir.amraoui@loxam.fr;PETITS ENGINS
LOXAM ;Lo;LOXAM RENTAL GENNEVILLIERS OUEST;92000;GENNEVILLIERS;48.9254221;2.2940122;ILE DE FRANCE;France;11, route Des Mercières, 92230, France;48.9279;2.2978;mounir.amraoui@loxam.fr;PETITS ENGINS
LOXAM ;Lo;LOXAM TP PARIS;77000;MOISSY CRAMAYEL;48.6285035;2.5703151;ILE DE FRANCE;France;210 Avenue Ampère - RN 6, 77550, France;48.6225;2.6013;mounir.amraoui@loxam.fr;PETITS ENGINS
LOXAM ;Lo;CORNER LOXAM - LM MELUN - CESSON;77000;CESSON;48.5624381;2.6021145;ILE DE FRANCE;France;rue Du Bois Des Saints-Pères, 77240, France;48.5630;2.6065;mounir.amraoui@loxam.fr;PETITS ENGINS
LOXAM ;Lo;CORNER LOXAM - WELDOM CARRIÈRES;78000;CARRIERES SUR SEINE;48.9134112;2.1779083;ILE DE FRANCE;France;11 avenue du Maréchal Juin, 78420, France;48.9104;2.1787;mounir.amraoui@loxam.fr;PETITS ENGINS
LOXAM ;Lo;CORNER LOXAM - CASTORAMA CRETEIL;94000;CRETEIL   ;48.7771486;2.4530731;ILE DE FRANCE;France;70 Avenue du Maréchal Foch, 94000, France;48.7920;2.4530;mounir.amraoui@loxam.fr;PETITS ENGINS
LOXAM ;Lo;CORNER LOXAM - CASTORAMA FRESNES;94000;FRESNES;48.7546687;2.3227967;ILE DE FRANCE;France;186 Parc Médicis, 94260, France;48.7565;2.3223;mounir.amraoui@loxam.fr;PETITS ENGINS
LOXAM ;Lo;CORNER LOXAM - LM MANTES;78000;BUCHELAY;48.9793554;1.6716534;ILE DE FRANCE;France;232 av Du Béarn - Les Docks, 78200, France;48.9890;1.6805;mounir.amraoui@loxam.fr;PETITS ENGINS
LOXAM ;Lo;CORNER LOXAM - BEAUVALLET BLANDINE;91000;GUILLERVAL;48.3745373;2.0599606;ILE DE FRANCE;France;Rue du Triquoir - ZAC de la Géode 2, 91690, France;48.3589;2.0662;mounir.amraoui@loxam.fr;PETITS ENGINS
LOXAM ;Lo;CORNER LOXAM - LM GONESSE;95000;GONESSE;48.9863555;2.4500537;ILE DE FRANCE;France;1 rond point De La Croix St-Benoît, 95500, France;48.9910;2.4495;mounir.amraoui@loxam.fr;PETITS ENGINS
LOXAM ;Lo;LOXAM GENNEVILLIERS (LAHO);92000;GENNEVILLIERS;48.9254221;2.2940122;ILE DE FRANCE;France;6 Route Du Bassin N° 5, 92230, France;48.9314;2.2876;mounir.amraoui@loxam.fr;PETITS ENGINS
LOXAM ;Lo;LOXAM MELUN VAUX LE PENIL;77000;VAUX LE PENIL;48.5255542;2.6831642;ILE DE FRANCE;France;1033 Rue Du Maréchal Juin, 77000, France;48.5369;2.6807;mounir.amraoui@loxam.fr;PETITS ENGINS
LOXAM ;Lo;LOXAM RENTAL VILLENEUVE ST GEORGES;94000;VILLENEUVE SAINT GEORGES;48.7305272;2.44782;ILE DE FRANCE;France;Rue des Prés de l'Hôpital, 94194, France;48.7321;2.4493;mounir.amraoui@loxam.fr;PETITS ENGINS
LOXAM ;Lo;CORNER LOXAM - CASTO VILLEMOMBLE;93000;VILLEMOMBLE;48.881886;2.5076181;ILE DE FRANCE;France;43 allée du Plateau, 93250, France;48.8836;2.5054;mounir.amraoui@loxam.fr;PETITS ENGINS
LOXAM ;Lo;CORNER LOXAM - CASTO LES ULIS;91000;LES ULIS;48.681708;2.1701573;ILE DE FRANCE;France;6-8 avenue de L'Océanie, 91940, France;48.6810;2.1702;mounir.amraoui@loxam.fr;PETITS ENGINS
LOXAM ;Lo;CORNER LOXAM - CASTO LES LILAS;93000;LES LILAS;48.8795658;2.415796;ILE DE FRANCE;France;15 boulevard de la Liberté, 93260, France;48.8789;2.4181;mounir.amraoui@loxam.fr;PETITS ENGINS
LOXAM ;Lo;CORNER LOXAM - STARMAT MONTREUIL;93000;MONTREUIL;48.8623357;2.4412184;ILE DE FRANCE;France;188 boulevard de la Boissière, 93100, France;48.8778;2.4655;mounir.amraoui@loxam.fr;PETITS ENGINS
LOXAM ;Lo;CORNER LOXAM - LM IVRY-SUR-SEINE;94000;IVRY SUR SEINE;48.8122302;2.3872525;ILE DE FRANCE;France;2 - 12 rue François Mitterrand, 94200, France;48.8135;2.3837;mounir.amraoui@loxam.fr;PETITS ENGINS
POINT P;P.P;POINT P;78000;LE PORT MARLY;48.8809876;2.109145;ILE DE FRANCE;France;21 rue Charles de Gaulle, 78560, France;48.888547;2.1033811;—;FOURNITURES
POINT P;P.P;POINT P;78000;SAINT ARNOULTEN YVELINES;48.572604;1.9350788;ILE DE FRANCE;France;13 rue Stourm, 78730, France;48.5672598;1.9307265;—;FOURNITURES
POINT P;P.P;POINT P;95000;ARGENTEUIL;48.9479069;2.2481797;ILE DE FRANCE;France;35 rue Gode, 95100, France;48.958887;2.260479;—;FOURNITURES
POINT P;P.P;POINT P;95000;SARCELLES;48.9960813;2.3796245;ILE DE FRANCE;France;42 route Calais, 95200, France;48.977414;2.365953;—;FOURNITURES
POINT P;P.P;POINT P;94000;SUCYEN BRIE;48.7711323;2.5221284;ILE DE FRANCE;France;16 chemin Marais, 94370, France;48.76649918;2.504506044;—;FOURNITURES
POINT P;P.P;POINT P;78000;SARTROUVILLE;48.9409016;2.1585037;ILE DE FRANCE;France;74 route Cormeilles, 78500, France;48.949575;2.181336;—;FOURNITURES
POINT P;P.P;POINT P;78000;MAULETTE;48.7914601;1.6207519;ILE DE FRANCE;France;70 rue Vignes, 78550, France;48.7888101;1.6092475;—;FOURNITURES
POINT P;P.P;POINT P;95000;BEZONS;48.9250016;2.2105491;ILE DE FRANCE;France;17 rue Salvador Allende, 95870, France;48.918635;2.213353;—;FOURNITURES
POINT P;P.P;POINT P;95000;BELLOYEN FRANCE;49.0892802;2.367884;ILE DE FRANCE;France;1 route Paris, 95270, France;49.0949425;2.3609029;—;FOURNITURES
POINT P;P.P;POINT P;75000;PARIS;48.8534951;2.3483915;ILE DE FRANCE;France;quai Bercy, 75012, France;48.8360572;2.378911124;—;FOURNITURES
POINT P;P.P;POINT P;95000;SAINT OUEN L'AUMONE;49.0992941;2.1513279;ILE DE FRANCE;France;111 rue Paris, 95310, France;49.0372074;2.1203229;—;FOURNITURES
POINT P;P.P;POINT P;75000;PARIS;2.12134;2.3483915;ILE DE FRANCE;France;25 quai Ivry, 75013, France;48.826829;2.38596;—;FOURNITURES
POINT P;P.P;POINT P;93000;GOURNAY SUR MARNE;48.8598434;2.576913;ILE DE FRANCE;France;rue Paris, 93460, France;48.852448;2.606985;—;FOURNITURES
POINT P;P.P;POINT P;77000;VARENNES SUR SEINE;48.3766097;2.9301414;ILE DE FRANCE;France;37 route Petit Fossard, 77130, France;48.367537;2.95738;—;FOURNITURES
POINT P;P.P;POINT P;78000;VERSAILLES;48.8035403;2.1266886;ILE DE FRANCE;France;11 rue Porte de Buc, 78000, France;48.7939511;2.1375488;—;FOURNITURES
POINT P;P.P;POINT P;93000;NOISY LE SEC;48.8897751;2.4516055;ILE DE FRANCE;France;75 rue Parc, 93130, France;48.890528;2.445421;—;FOURNITURES
POINT P;P.P;POINT P;91000;CORBEILESSONNES;48.6137734;2.4818087;ILE DE FRANCE;France;53 quai Apport, 91100, France;48.61979665;2.475181036;—;FOURNITURES
POINT P;P.P;POINT P;93000;MONTREUIL;48.8623357;2.4412184;ILE DE FRANCE;France;24 rue Sorins, 93100, France;48.8588594;2.4286756;—;FOURNITURES
POINT P;P.P;POINT P;77000; ROISSYEN BRIE;48.7903787;2.6545195;ILE DE FRANCE;France;7 route Ozoir Bp 6, 77680, France;48.781857;2.658503;—;FOURNITURES
POINT P;P.P;POINT P;91000;ARPAJON;48.5902899;2.2477303;ILE DE FRANCE;France;1 route Limours, 91290, France;48.585599;2.244846;—;FOURNITURES
POINT P;P.P;POINT P;77000;PERTHES;48.4758593;2.555445;ILE DE FRANCE;France;58 rue Melun, 77930, France;48.479812;2.562286;—;FOURNITURES
POINT P;P.P;POINT P;95000;MAGNYEN VEXIN;49.1554403;1.7864359;ILE DE FRANCE;France;Zi La Demi Lune route Mantes, 95420, France;49.133362;1.788989;—;FOURNITURES
POINT P;P.P;POINT P;75000;PARIS;48.8534951;2.3483915;ILE DE FRANCE;France;217 rue Aubervilliers, 75018, France;48.893563;2.330329;—;FOURNITURES
POINT P;P.P;POINT P;91000;MASSY;48.730158;2.2766735;ILE DE FRANCE;France;4 route Bonde, 91300, France;48.7213465;2.2804626;—;FOURNITURES
POINT P;P.P;POINT P;78000;BUCHELAY;48.9793554;1.6716534;ILE DE FRANCE;France;5 rue Closeaux, 78200, France;48.9918874;1.6826855;—;FOURNITURES
POINT P;P.P;POINT P;77000;CLAYE SOUILLY;48.9986182;2.8504604;ILE DE FRANCE;France;4 rue Ernest Sarron, 77410, France;48.9530773;2.6677215;—;FOURNITURES
POINT P;P.P;POINT P;78000;CARRIERES SOUS POISSY;48.9437694;2.0341747;ILE DE FRANCE;France;701 rue Reine Blanche, 78955, France;48.941329;2.030112;—;FOURNITURES
POINT P;P.P;POINT P;91000;MAISSE;48.3942835;2.3755851;ILE DE FRANCE;France;10 route Buno Bonneveaux, 91720, France;48.38935;2.388779;—;FOURNITURES
POINT P;P.P;POINT P;75000;PARIS;48.8534951;2.3483915;ILE DE FRANCE;France;port Javel Bas, 75015, France;48.840155;2.293559;—;FOURNITURES
POINT P;P.P;POINT P;91000;LES ULIS;48.681708;2.1701573;ILE DE FRANCE;France;avenue Cap Horn, 91940, France;48.67592146;2.198079153;—;FOURNITURES
POINT P;P.P;POINT P;91000;MENNECY;48.5666645;2.4347044;ILE DE FRANCE;France;3 rue Victor Grignard, 91540, France;48.5673915;2.4506245;—;FOURNITURES
POINT P;P.P;POINT P;91000;MORANGIS;48.7022956;2.3367599;ILE DE FRANCE;France;15 avenue Froides Bouillies, Zac Portes De Morangis, 91420, France;48.7079392;2.3451426;—;FOURNITURES
POINT P;P.P;POINT P;95000;FOSSES;49.0986649;2.5161998;ILE DE FRANCE;France;2 rue Ferme St Ladre, 95470, France;49.0996817;2.5282791;—;FOURNITURES
POINT P;P.P;POINT.P PARIS 18;75000;PARIS;48.8534951;2.3483915;ILE DE FRANCE;France;9 boulevard Ney, 75018, France;48.8983076;2.3662565;—;FOURNITURES
POINT P;P.P;POINT P;93000;VILLEPINTE;48.9636566;2.5347541;ILE DE FRANCE;France;100 avenue Paul Vaillant Couturier, 93420, France;48.959373;2.533651;—;FOURNITURES
POINT P;P.P;POINT P;91000;SAINTE GENEVIEVE DES BOIS;48.6407872;2.3259129;ILE DE FRANCE;France;6 avenue Bout du Plessis, Zac Croix Blanche, 91700, France;48.621518;2.3438926;—;FOURNITURES
POINT P;P.P;POINT P;93000;SAINT DENIS L'ETOILE;48.880696;2.5695462;ILE DE FRANCE;France;47 boulevard Anatole France, 93200, France;48.925832;2.351154;—;FOURNITURES
POINT P;P.P;POINT P;75000;PARIS;48.8534951;2.3483915;ILE DE FRANCE;France;200 quai Jemmapes, 75010, France;48.88047;2.3690318;—;FOURNITURES
POINT P;P.P;POINT P;91000;SAINT CHERON;48.551177;2.1256363;ILE DE FRANCE;France;chemin Juiniere, 91530, France;48.55062336;2.114344476;—;FOURNITURES
POINT P;P.P;POINT P;93000;LIVRY GARGAN;48.917335;2.5298854;ILE DE FRANCE;France;51 boulevard Robert Schumann, 93190, France;49.048062;2.493414677;—;FOURNITURES
POINT P;P.P;POINT P;95000;PIERRELAYE;49.0232238;2.1557343;ILE DE FRANCE;France;256 boulevard Havre, Rte Nationale 14, 95480, France;49.004756;2.175392;—;FOURNITURES
POINT P;P.P;POINT P;78000;CONFLANS SAINTE HONORINE;48.9938791;2.0949768;ILE DE FRANCE;France;quai Confluent, 78700, France;49.00128407;2.072660939;—;FOURNITURES
POINT P;P.P;POINT P;77000;SOUPPES SUR LOING;48.1811405;2.7311751;ILE DE FRANCE;France;ZI route Egreville, 77460, France;48.179126;2.870871;—;FOURNITURES
POINT P;P.P;POINT P;77000;SAINT MARD;49.0370716;2.694435;ILE DE FRANCE;France;rue Moutiers, 77260, France;48.80002767;2.9971352;—;FOURNITURES
RABONI ;Ra;RABONI ATHIS;91000;ATHIS MONS;48.7079878;2.3888044;ILE DE FRANCE;France;170 avenue François Mitterrand RN7 91200 Athis-Mons;48.7110;2.3715;—;FOURNITURES
RABONI ;Ra;RABONI BEAUCHAMP;95000;PIERRELAYE;49.0232238;2.1557343;ILE DE FRANCE;France;9 chemin du Parc 95480 Pierrelaye;49.0180719;2.1764392;—;FOURNITURES
RABONI ;Ra;RABONI DAMMARIE;77000;DAMMARIE LES LYS;48.5150876;2.6347018;ILE DE FRANCE;France;818 avenue Montaigne 77190 Dammarie-les-Lys;48.521842;2.633076;—;FOURNITURES
RABONI ;Ra;RABONI  ETRECHY;91000;ETRECHY;48.4936601;2.1945814;ILE DE FRANCE;France;5 route de Chamarande 91580 Etrechy;48.502961;2.201503;—;FOURNITURES
RABONI ;Ra;RABONI IVRY;94000;IVRY SUR SEINE;48.8122302;2.3872525;ILE DE FRANCE;France;25 quai Marcel Boyer 94200 Ivry-sur-Seine;48.8223377;2.3924309;—;FOURNITURES
RABONI ;Ra;RABONI LA COURNEUVE;93000;LA COURNEUVE;48.9267236;2.3896123;ILE DE FRANCE;France;58 avenue Jean Mermoz 93120 La Courneuve;48.932188;2.40471;—;FOURNITURES
RABONI ;Ra;RABONI LE PECQ;78000;LE PECQ;48.8972505;2.1066273;ILE DE FRANCE;France;60 route de Sartrouville 78230 Le Pecq;48.903268;2.114946;—;FOURNITURES
RABONI ;Ra;RABONI MENNECY;91000;MENNECY;48.5666645;2.4347044;ILE DE FRANCE;France;26 rue de Tournenfils 91540 Mennecy;48.570072;2.450969;—;FOURNITURES
RABONI ;Ra;RABONI NOISY;93000;NOISY LE GRAND;48.8492238;2.5524906;ILE DE FRANCE;France;16 rue de la Passerelle 93160 Noisy-le-Grand;48.848291;2.525365;—;FOURNITURES
RABONI ;Ra;RABONI PANTIN;75000;PARIS;48.8534951;2.3483915;ILE DE FRANCE;France;25 rue du chemin de fer 75019 Paris;48.899304;2.393482;—;FOURNITURES
RABONI ;Ra;RABONI PARIS LECLAIRE;75000;PARIS;48.8534951;2.3483915;ILE DE FRANCE;France;7 rue Jean Leclaire 75017 Paris;48.8940119;2.325599;—;FOURNITURES
RABONI ;Ra;RABONI PARIS ROQUETTE;75000;PARIS;48.8534951;2.3483915;ILE DE FRANCE;France;52 rue de la Roquette 75011 Paris;48.8548662;2.3731539;—;FOURNITURES
RABONI ;Ra;RABONI PUISEUX;95000;PUISEUX PONTOISE;49.0578349;2.0205371;ILE DE FRANCE;France;Route de Boissy l'Aillerie 95650 Puiseux-Pontoise;49.05880461;2.019470501;—;FOURNITURES
RABONI ;Ra;RABONI VARENNES;77000;VARENNES SUR SEINE;48.3766097;2.9301414;ILE DE FRANCE;France;Rue du Marais du Saule 77130 Varennes-sur-Seine;48.37028094;2.941702608;—;FOURNITURES
RABONI ;Ra;RABONI VILLEJUIF;94000;VILLEJUIF;48.7921098;2.3633048;ILE DE FRANCE;France;81-87 rue Ambroise Croizat 94800 Villejuif;48.801187;2.3581796;—;FOURNITURES
CEMEX;Cem;CEMEX AGENCE AULNAY SOUS BOIS;93000;AULNAY SOUS BOIS;48.934231;2.499789;ILE DE FRANCE;France;20, RUE BLAISE PASCAL, ZA LES MARDELLES, 93600 AULNAY-SOUS-BOIS;48.949876;2.481682;—;BETON
CEMEX;Cem;CEMEX AGENCE CHENNEVIERES;94000;CHENNEVIERES SUR MARNE;48.7965001;2.530442;ILE DE FRANCE;France;ZONE DES BORDES, 13 BIS RUE CONDORCET, 94430 CHENNEVIERES-SUR-MARNE;48.796306;2.545022;—;BETON
CEMEX;Cem;CEMEX AGENCE CHEVILLY LARUE;94000;CHEVILLY LARUE;48.7714153;2.3469255;ILE DE FRANCE;France;193, BOULEVARD JEAN MERMOZ, 94550 CHEVILLY-LARUE;48.765516;2.335272;—;BETON
CEMEX;Cem;CEMEX AGENCE CHILLY MAZARIN;91000;CHILLY MAZARIN;48.7026161;2.3123582;ILE DE FRANCE;France;ZAC DE LA VIGNE AUX LOUPS, RUE BLAISE PASCAL, 91380 CHILLY-MAZARIN;48.7063696;2.316561832;—;BETON
CEMEX;Cem;CEMEX AGENCE COIGNIÈRES;78000;COIGNIERES;48.7671468;1.9193679;ILE DE FRANCE;France;ROUTE DU MESNIL ST-DENIS, 78310 COIGNIERES-MAUREPAS;48.74711;1.928575;—;BETON
CEMEX;Cem;CEMEX AGENCE HERBLAY;95000;HERBLAY;48.9908;2.1664;ILE DE FRANCE;France;Z.I., 2, AVENUE PAUL LANGEVIN, 95228 HERBLAY CEDEX;49.004824;2.170951;—;BETON
CEMEX;Cem;CEMEX AGENCE LIMAY;78000;LIMAY;48.9921015;1.7353686;ILE DE FRANCE;France;3, IMPASSE DES CARRIERES, PARC DE LA ROCADE, 78520 LIMAY;48.994616;1.733719;—;BETON
CEMEX;Cem;CEMEX AGENCE NANTERRE;92000;NANTERRE;48.8924273;2.2071267;ILE DE FRANCE;France;16, AVENUE DES GUILLERAIES, 92000 NANTERRE;48.895318;2.18514;—;BETON
CEMEX;Cem;CEMEX AGENCE PANTIN;93000;PANTIN;48.8965023;2.4019804;ILE DE FRANCE;France;110 BIS, AV. DU GENERAL LECLER, 93500 PANTIN;48.90025985;2.423264598;—;BETON
CEMEX;Cem;CEMEX AGENCE PARIS 12;75000;PARIS;48.8534951;2.3483915;ILE DE FRANCE;France;12, RUE VAN GOGH, 75012 PARIS;48.843942;2.372008;—;BETON
CEMEX;Cem;CEMEX AGENCE MEAUX;77000;MEAUX;48.9582708;2.8773541;ILE DE FRANCE;France;4, RUE SAMUEL MORSE, Z.I. NORD, 77100 MEAUX;48.962351;2.915275;—;BETON
CEMEX;Cem;CEMEX AGENCE MELUN NORD (MOISSY CRAMAYEL);77000;MOISSY CRAMAYEL;48.6285035;2.5703151;ILE DE FRANCE;France;231 AVENUE ALBERT EINSTEIN, Z.I. MOISSY-CRAMAYEL, 77550 MOISSY-CRAMAYEL;48.621554;2.570187;—;BETON
CEMEX;Cem;CEMEX AGENCE MELUN SUD-EST (VAUX LE PENIL);77000;VAUX LE PENIL;48.5255542;2.6831642;ILE DE FRANCE;France;905, AVENUE SAINT-JUST, Z.I. DE VAUX LE PENIL, 77000 VAUX-LE-PENIL;48.534062;2.687857;—;BETON
CEMEX;Cem;CEMEX UNITE DE PRODUCTION BETON DE TOLBIAC;75000;PARIS;48.8534951;2.3483915;ILE DE FRANCE;France;70 Quai Panhard et Levassor, 75013 Paris, France;48.8308663;2.3813099;—;BETON
CEMEX;Cem;CEMEX UNITE DE PRODUCTION BETON DE BONDY;93000;BONDY;48.9031;2.48291;ILE DE FRANCE;France;5 Quai Hubertine Auclert, 93140 Bondy, France;48.90717205;2.479129128;—;BETON
CEMEX;Cem;CEMEX UNITE DE PRODUCTION BETON DE ROSNY-SUR-SEINE;78000;ROSNY SUR SEINE;49.001733;1.6280317;ILE DE FRANCE;France;Z.A.C. des Marceaux, Rue Gustave Eiffel, 78710 Rosny-sur-Seine, France;48.99397462;1.654164288;—;BETON
CEMEX;Cem;CEMEX UNITE DE PRODUCTION BETON D’EVRY;91000;EVRY;48.6241665;2.4289667;ILE DE FRANCE;France;48 rue des Paveurs, 91000 Evry, France;48.628375;2.461848;—;BETON
CEMEX;Cem;CEMEX UNITE DE PRODUCTION BETON D’AUBERVILLIERS;93000;AUBERVILLIERS;48.9146078;2.3821895;ILE DE FRANCE;France;29 rue Lucien Lefranc, 93300 Aubervilliers, France;48.910457;2.374322;—;BETON
CEMEX;Cem;CEMEX UNITE DE PRODUCTION BETON DE MITRY-MORY;77000;MITRY MORY;48.9839674;2.6183971;ILE DE FRANCE;France;Z.I. de Mitry-Compans, Rue Decauville, 77297 Mitry-Mory, France;48.98427274;2.627064478;—;BETON
CEMEX;Cem;CEMEX UNITE DE PRODUCTION BETON DE NANTERRE;92000;NANTERRE;48.8924273;2.2071267;ILE DE FRANCE;France;Rue Lavoisier, 92000 Nanterre, France;48.89746187;2.17673757;—;BETON
CEMEX;Cem;CEMEX UNITE DE PRODUCTION BETON DE DOURDAN;91000;DOURDAN;48.5288442;2.0153689;ILE DE FRANCE;France;La Longerie, RD 838, 91410 Dourdan, France;48.54494118;2.018811817;—;BETON
CEMEX;Cem;CEMEX UNITE DE PRODUCTION BETON DE PONTAULT-COMBAULT;77000;PONTAULT COMBAULT;48.8009132;2.6068064;ILE DE FRANCE;France;Rue du Luxembourg, 77340 Pontault-Combault, France;48.79804941;2.629164561;—;BETON
CEMEX;Cem;CEMEX UNITE DE PRODUCTION BETON DE PORT VICTOR;75000;PARIS;48.8534951;2.3483915;ILE DE FRANCE;France;26 quai d'Issy-les-Moulineaux, 75015 Paris, France;48.8364531;2.2672445;—;BETON
CEMEX;Cem;CEMEX UNITE DE PRODUCTION BETON DE PALAISEAU;91000;PALAISEAU;48.7144587;2.2453842;ILE DE FRANCE;France;2 rue Paul Doumer, 91120 Palaiseau, France;48.723515;2.248294;—;BETON
CEMEX;Cem;CEMEX UNITE DE PRODUCTION BETON D'ATHIS-MONS;91000;ATHIS MONS;48.7079878;2.3888044;ILE DE FRANCE;France;17 quai de l'Orge, 91200 Athis-Mons, France;48.7050433;2.3986024;—;BETON
CEMEX;Cem;CEMEX PORT DE SAINT-DENIS-L'ETOILE;93000;SAINT DENIS L'ETOILE;48.880696;2.5695462;ILE DE FRANCE;France;3 quai de Saint-Ouen, 93200 Saint-Denis-l'Etoile, France;48.92766767;2.33870899;—;BETON
CEMEX;Cem;CEMEX PORT D’AUBERVILLIERS;93000;AUBERVILLIERS;48.9146078;2.3821895;ILE DE FRANCE;France;Quai Lucien Lefranc, 93300 Aubervilliers, France;48.90942433;2.374871306;—;BETON
CEMEX;Cem;CEMEX PORT D’EVRY;91000;EVRY;48.6241665;2.4289667;ILE DE FRANCE;France;38 route des Paveurs, 91000 Evry, France;48.62796432;2.462402642;—;BETON
CEMEX;Cem;CEMEX PORT DE TOLBIAC;75000;PARIS;48.8534951;2.3483915;ILE DE FRANCE;France;70 quai Panhard et Levassor, 75013 Paris, France;48.8308663;2.3813099;—;BETON
CEMEX;Cem;CEMEX PORT D’IVRY;94000;IVRY SUR SEINE;48.8122302;2.3872525;ILE DE FRANCE;France;3 Quai Marcel Boyer, 94200 Ivry-sur-Seine, France;48.82487;2.389281;—;BETON
CEMEX;Cem;CEMEX PORT DE BERCY;75000;PARIS;48.8534951;2.3483915;ILE DE FRANCE;France;1 quai de Bercy, 75012 Paris, France;48.83158659;2.384735682;—;BETON
CEMEX;Cem;CEMEX UNITE DE PRODUCTION BETON DE GENNEVILLIERS;92000;GENNEVILLIERS;48.9254221;2.2940122;ILE DE FRANCE;France;5 Route annexe de la Seine, 92230 Gennevilliers, France;48.94223;2.292504;—;BETON
CAUPAMAT CADDENZ;CAUP;CADDENZ PALISSADES ORLY;94000;ORLY;48.7431683;2.402391;ILE DE FRANCE;France;40 Rue du Kéfir, 94310 Orly;48.7490;2.3920;—;MARQUAGE /BALISAGE 
CAUPAMAT CADDENZ;CAUP;CADDENZ PARIS NORD;92000;GENNEVILLIERS;48.9254221;2.2940122;ILE DE FRANCE;France;114 Avenue Laurent Cély, 92230 Gennevilliers;48.9180;2.3070;—;MARQUAGE /BALISAGE 
CAUPAMAT CADDENZ;CAUP;CADDENZ PARIS EST;77000;CROISSY BEAUBOURG;48.8278734;2.6584023;ILE DE FRANCE;France;25 Allée Léon Jouhaux, 77183 Croissy-Beaubourg;48.8290;2.6600;—;MARQUAGE /BALISAGE 
CAUPAMAT CADDENZ;CAUP;CADDENZ PARIS SUD;91000;WISSOUS ;48.7316381;2.3268669;ILE DE FRANCE;France;27 Avenue Ampère, 91320 Wissous;48.7340;2.3290;—;MARQUAGE /BALISAGE 
TERSEN;Ter;TERSEN ETABLISSEMENT COSSON;95000;LOUVRES;49.0449139;2.5096751;ILE DE FRANCE;France;9 Avenue du Beaumontoir, 95380 Louvres;49.0450;2.5070;environnement.louvres@tersenenv.com / 01 30 29 02 00;MATERIEL BLANC 
TERSEN;Ter;TERSEN ETABLISSEMENT PICHETA;95000;PIERRELAYE;49.0232238;2.1557343;ILE DE FRANCE;France;13 Route de Conflans, 95480 Pierrelaye;49.0200;2.1600;environnement.pierrelaye@tersenenv.com;MATERIEL BLANC 
TERSEN;Ter;TERSEN ;91000;MARCOUSSIS;48.6559966;2.2035058;ILE DE FRANCE;France;CD35 – 10 Route de Montlhéry, 91460 Marcoussis;48.6420;2.2310;—;MATERIEL BLANC 
TERSEN;Ter;TERSEN DEVELOPPEMENT;93000;L’ILE SAINT DENIS;48.938;2.338;ILE DE FRANCE;France;15 bis Quai du Châtelier, 93450 L’Île-Saint-Denis;48.9340;2.3380;—;MATERIEL BLANC 
PUM;PUM;PUM - AGENCE AULNAY SOUS BOIS;93000;AULNAY SOUS BOIS;48.934231;2.499789;ILE DE FRANCE;France;20, RUE BLAISE PASCAL, ZA LES MARDELLES, 93600 AULNAY-SOUS-BOIS;48.9495;2.4935;—;FOURNITURES
PUM;PUM;PUM - AGENCE CHENNEVIERES;94000;CHENNEVIERES SUR MARNE;48.7965001;2.530442;ILE DE FRANCE;France;ZONE DES BORDES, 13 BIS RUE CONDORCET, 94430 CHENNEVIERES-SUR-MARNE;48.7980;2.5330;—;FOURNITURES
PUM;PUM;PUM - AGENCE CHEVILLY LARUE;94000;CHEVILLY LARUE;48.7714153;2.3469255;ILE DE FRANCE;France;193, BOULEVARD JEAN MERMOZ, 94550 CHEVILLY-LARUE;48.7680;2.3520;—;FOURNITURES
PUM;PUM;PUM - AGENCE CHILLY MAZARIN;91000;CHILLY MAZARIN;48.7026161;2.3123582;ILE DE FRANCE;France;ZAC DE LA VIGNE AUX LOUPS, RUE BLAISE PASCAL, 91380 CHILLY-MAZARIN;48.7050;2.3120;—;FOURNITURES
PUM;PUM;PUM - AGENCE COIGNIÈRES;78000;COIGNIERES;48.7671468;1.9193679;ILE DE FRANCE;France;ROUTE DU MESNIL ST-DENIS, 78310 COIGNIERES-MAUREPAS;48.7450;1.9200;—;FOURNITURES
PUM;PUM;PUM - AGENCE HERBLAY;95000;HERBLAY;48.9908;2.1664;ILE DE FRANCE;France;Z.I., 2, AVENUE PAUL LANGEVIN, 95228 HERBLAY CEDEX;48.9900;2.1640;—;FOURNITURES
PUM;PUM;PUM - AGENCE LIMAY;78000;LIMAY;48.9921015;1.7353686;ILE DE FRANCE;France;3, IMPASSE DES CARRIERES, PARC DE LA ROCADE, 78520 LIMAY;48.9950;1.7420;—;FOURNITURES
PUM;PUM;PUM - AGENCE NANTERRE;92000;NANTERRE;48.8924273;2.2071267;ILE DE FRANCE;France;16, AVENUE DES GUILLERAIES, 92000 NANTERRE;48.9010;2.2090;—;FOURNITURES
PUM;PUM;PUM;93000;PANTIN;48.8965023;2.4019804;ILE DE FRANCE;France;110 BIS, AV. DU GENERAL LECLER, 93500 PANTIN;48.8950;2.4090;—;FOURNITURES
PUM;PUM;PUM;75000;PARIS;48.8534951;2.3483915;ILE DE FRANCE;France;12, RUE VAN GOGH, 75012 PARIS;48.8350;2.4120;—;FOURNITURES
PUM;PUM;PUM;77000;MEAUX;48.9582708;2.8773541;ILE DE FRANCE;France;4, RUE SAMUEL MORSE, Z.I. NORD, 77100 MEAUX;48.9690;2.9050;—;FOURNITURES
PUM;PUM;PUM;77000;MOISSY CRAMAYEL;48.6285035;2.5703151;ILE DE FRANCE;France;231 AVENUE ALBERT EINSTEIN, Z.I. MOISSY-CRAMAYEL, 77550 MOISSY-CRAMAYEL;48.6260;2.6010;—;FOURNITURES
PUM;PUM;PUM;77000;VAUX LE PENIL;48.5255542;2.6831642;ILE DE FRANCE;France;905, AVENUE SAINT-JUST, Z.I. DE VAUX LE PENIL, 77000 VAUX-LE-PENIL;48.5280;2.6800;—;FOURNITURES
YPREMA;YP;YPREMA;77000;EMERAINVILLE;48.8115813;2.6212919;ILE DE FRANCE;France;11, allée de la Briarde, 77184 EMERAINVILLE;48.8167;2.6167;—;MATERIEL BLANC 
YPREMA;YP;YPREMA;94000;BONNEUIL SUR MARNE;48.7742;2.4792;ILE DE FRANCE;France;63-64, route de l’île St Julien  94380 BONNEUIL-SUR-MARNE;48.7760;2.4850;—;MATERIEL BLANC 
YPREMA;YP;YPREMA;91000;MASSY;48.730158;2.2766735;ILE DE FRANCE;France;14, route de la Bonde ZI de la Bonde 91300  MASSY;48.7317;2.2680;—;MATERIEL BLANC 
YPREMA;YP;YPREMA;91000;MASSY;48.730158;2.2766735;ILE DE FRANCE;France;11, route de la Bonde ZI de la Bonde 91300 MASSY;48.7317;2.2680;—;MATERIEL BLANC 
YPREMA;YP;YPREMA;78000;TRAPPES;48.7760957;1.9988356;ILE DE FRANCE;France;Allée Basile Levraud  78190 TRAPPES;48.7740;2.0170;—;MATERIEL BLANC 
YPREMA;YP;YPREMA;92000;GENNEVILLIERS;48.9254221;2.2940122;ILE DE FRANCE;France;7, route du Môle Central 92230 GENNEVILLIERS;48.9330;2.3000;—;MATERIEL BLANC 
YPREMA;YP;YPREMA;77000;DAMMARTINEN GOELE;49.0547758;2.6835682;ILE DE FRANCE;France;Rue Clément Ader Chemin communal 77230  DAMMARTIN-EN-GOELE;49.0538;2.6817;—;MATERIEL BLANC 
YPREMA;YP;YPREMA;77000;LAGNY SUR MARNE;48.8773018;2.7056056;ILE DE FRANCE;France;6, rue Freycinet Port de Lagny 77400 LAGNY-SUR-MARNE;48.8770;2.7060;—;MATERIEL BLANC 
FRANSBONHOMME;Frans;FRANSBONHOMME;77000;VAUX LE PENIL;48.5255542;2.6831642;ILE DE FRANCE;France;475 rue Raymond Hervillard, 77000 Vaux-le-Pénil, France;48.5333;2.6667;—;FOURNITURES
FRANSBONHOMME;Frans;FRANSBONHOMME;94000;FRESNES;48.7546687;2.3227967;ILE DE FRANCE;France;6 rue de Chevilly, 94260 Fresnes, France;48.7500;2.3167;—;FOURNITURES
FRANSBONHOMME;Frans;FRANSBONHOMME;78000;BUCHELAY;48.9793554;1.6716534;ILE DE FRANCE;France;10 rue Champs Odes, 78200 Buchelay, France;48.9790;1.6710;—;FOURNITURES
FRANSBONHOMME;Frans;FRANSBONHOMME;92000;GENNEVILLIERS;48.9254221;2.2940122;ILE DE FRANCE;France;Impasse des Petits Marais, 92230 Gennevilliers, France;48.9330;2.3000;—;FOURNITURES
FRANSBONHOMME;Frans;FRANSBONHOMME;77000;COULOMMIERS;48.8204017;3.2494033;ILE DE FRANCE;France;2 bis rue des Margats, 77120 Coulommiers, France;48.8147;3.0833;—;FOURNITURES
FRANSBONHOMME;Frans;FRANSBONHOMME;95000;TAVERNY;49.0265888;2.2234971;ILE DE FRANCE;France;1 boulevard Chaptal, 95150 Taverny, France;49.0250;2.2167;—;FOURNITURES
FRANSBONHOMME;Frans;FRANSBONHOMME;92000;NANTERRE;48.8924273;2.2071267;ILE DE FRANCE;France;52 rue du Port, 92000 Nanterre, France;48.8924;2.2066;—;FOURNITURES
FRANSBONHOMME;Frans;FRANSBONHOMME;95000;CHAMPAGNE SUR OISE;49.1339431;2.2312397;ILE DE FRANCE;France;Rue Lavoisier, 95660 Champagne-sur-Oise, France;49.1360;2.2420;—;FOURNITURES
FRANSBONHOMME;Frans;FRANSBONHOMME;78000;COIGNIERES;48.7671468;1.9193679;ILE DE FRANCE;France;Rue Laënnec, 78310 Coignières, France;48.7470;1.9200;—;FOURNITURES
FRANSBONHOMME;Frans;FRANSBONHOMME;78000;LES MUREAUX;48.9931578;1.909928;ILE DE FRANCE;France;2 rue Levassor, 78130 Les Mureaux, France;48.9910;1.9090;—;FOURNITURES
FRANSBONHOMME;Frans;FRANSBONHOMME;77000;LAGNY SUR MARNE;48.8773018;2.7056056;ILE DE FRANCE;France;135 rue Freycinet, 77400 Lagny-sur-Marne, France;48.8770;2.7070;—;FOURNITURES
FRANSBONHOMME;Frans;FRANSBONHOMME;92000;GENNEVILLIERS;48.9254221;2.2940122;ILE DE FRANCE;France;110 avenue Général de Gaulle, 92230 Gennevilliers, France;48.9333;2.3000;—;FOURNITURES
FRANSBONHOMME;Frans;FRANSBONHOMME;77000;MONTEREAU FAULT YONNE;48.3849647;2.9557006;ILE DE FRANCE;France;2 rue Clomarts, 77130 Montereau-Fault-Yonne, France;48.3833;2.9500;—;FOURNITURES
FRANSBONHOMME;Frans;FRANSBONHOMME;91000;FLEURY MEROGIS;48.629965;2.3609313;ILE DE FRANCE;France;Rue Adrienne Bolland ZAC des Ciroliers 91700 Fleury-Mérogis France;48.6320;2.3640;—;FOURNITURES
FRANSBONHOMME;Frans;FRANSBONHOMME;77000;MEAUX;48.9582708;2.8773541;ILE DE FRANCE;France;8 rue Thomas Edison ZI Nord 77100 Meaux France;48.964354;2.916562;—;FOURNITURES
FRANSBONHOMME;Frans;FRANSBONHOMME;95000;GOUSSAINVILLE;49.0323168;2.4733628;ILE DE FRANCE;France;Rue Jean Pierre Timbaud 95190 Goussainville France;49.0207;2.4463;—;FOURNITURES
BSM;BSM;BSM;77000;LOGNES;48.8384157;2.632722;ILE DE FRANCE;France;9 allée Lech Walesa - Zac du Parc d'activités de Paris-Est;48.814;2.663;—;BETON
BSM;BSM;BSM;78000;LIMAY;48.9921015;1.7353686;ILE DE FRANCE;France;Ducas 291 Avenue Daniel Dreyfous;48.991;1.693;—;BETON
BSM;BSM;BSM;78000;THIVERVAL GRIGNON;48.8418686;1.9342972;ILE DE FRANCE;France;Chemin des Nourrices;48.849;1.950;—;BETON
BSM;BSM;BSM;91000;SAINT GERMAIN LES ARPAJON;48.5948294;2.2557107;ILE DE FRANCE;France;Chemin des Cinquante Arpents, 3 Rue Henri Rol Tanguy;48.625;2.275;—;BETON
BSM;BSM;BSM;91000;BRETIGNY SUR ORGE;48.6099887;2.3075288;ILE DE FRANCE;France;Rue de la Desserte Industrielle;48.611;2.309;—;BETON
BSM;BSM;BSM;92000;NANTERRE;48.8924273;2.2071267;ILE DE FRANCE;France;Electrique Chemin d'Accès à L'Usine;48.889;2.206;—;BETON
BSM;BSM;BSM;92000;GENNEVILLIERS;48.9254221;2.2940122;ILE DE FRANCE;France;22 Chemin des Petits Marais;48.926;2.295;—;BETON
BSM;BSM;BSM;93000;LA COURNEUVE;48.9267236;2.3896123;ILE DE FRANCE;France;65 Avenue Jean Mermoz;48.932;2.387;—;BETON
BSM;BSM;BSM;93000;LE BOURGET;48.9351403;2.4258354;ILE DE FRANCE;France;12 Avenue Hélène Boucher;48.936;2.418;—;BETON
BSM;BSM;BSM;93000;L’ILE SAINT DENIS;48.938;2.338;ILE DE FRANCE;France;12 & 14 Quai Le Chatelier;48.924;2.368;—;BETON
BSM;BSM;BSM;94000;VILLENEUVE SAINT GEORGES;48.7305272;2.44782;ILE DE FRANCE;France;Zone Industrielle des Graviers, 8 Avenue Winston Churchill;48.740;2.474;—;BETON
BSM;BSM;BSM;95000;LE THILLAY;48.9828124;2.4393386;ILE DE FRANCE;France;7 Avenue du Capitaine Girard;49.000;2.430;—;BETON
SODEXTRA;SODEX;SODEXTRA;91000;SACLAY;48.7305162;2.172576;ILE DE FRANCE;France;le Bas de L Étang, 91400 Saclay;48.716;2.166;—;MATERIEL BLANC 
SODEXTRA;SODEX;SODEXTRA;91000;VILLIERS LE BACLE;48.72819;2.11925;ILE DE FRANCE;France;6 Rue des Graviers, 91190 Villiers-le-Bâcle;48.664;2.134;—;MATERIEL BLANC 
COLBER;COL;COLBER;94000;THIAIS;48.7643664;2.391024;ILE DE FRANCE;France;169 avenue de Fontainebleau, 94320 Thiais, France;48.7401;2.4016;—;PETITS ENGINS
COLBER;COL;COLBER;77000;TORCY;48.8515;2.65265;ILE DE FRANCE;France;86 rue des Coutures Z.I., 77200 Torcy, France;48.8605;2.7019;—;PETITS ENGINS
COLBER;COL;COLBER;78000;VOISINS LE BRETONNEUX;48.7586786;2.0509674;ILE DE FRANCE;France;21/23 rue des Tilleuls ZAC Voisins-Merantais, 78960 Voisins-le-Bretonneux, France;48.7743;2.0231;—;PETITS ENGINS
COLBER;COL;COLBER;93000;LE BOURGET;48.9351403;2.4258354;ILE DE FRANCE;France;70 rue Albert Thomas, 93350 Le Bourget, France;48.9452;2.4365;—;PETITS ENGINS
COLBER;COL;COLBER;91000;MORIGNY CHAMPIGNY;48.4533835;2.1702138;ILE DE FRANCE;France;7 Rue des Rochettes, 91150 Morigny-Champigny, France;48.4300;2.2200;—;PETITS ENGINS
SOL 78;SOL 78;SOL 78;78000;VERNOUILLET;48.9724604;1.9830623;ILE DE FRANCE;France;14 Avenue des Coquelicots, 78540 Vernouillet, France;48.9450;1.5560;—;BETON
SPME;SPME;SPME;92000;GENNEVILLIERS;48.9254221;2.2940122;ILE DE FRANCE;France;13 Route du Môle Central, 92230 Gennevilliers, France;48.9360;2.3080;—;MATERIEL NOIR 
VIACOV;VIA;VIACOV;95000;GENICOURT;49.088;2.069;ILE DE FRANCE;France;39 rue des Fossettes, 95650 Génicourt, France;49.0615;2.0505;—;GRANDS ENGINS
BOUVELOT TP;Bouv;BOUVELOT TP;93000;LES PAVILLONS SOUS BOIS;48.9082988;2.5034999;ILE DE FRANCE;France;23 Allée d'Athènes, 93320 Les Pavillons-sous-Bois, France;48.9345;2.5180;—;MATERIEL BLANC 
CHEUTIN;CHEU;CHEUTIN;77000;MITRY MORY;48.9839674;2.6183971;ILE DE FRANCE;France;7 rue Galilée – ZA de la Villette aux Aulnes, 77290 Mitry-Mory, France;48.9822;2.5823;—;PETITS ENGINS
CHEUTIN;CHEU;CHEUTIN;91000;BREUX JOUY;48.5508514;2.1639559;ILE DE FRANCE;France;Route de Rimoron, 91650 Breux-Jouy, France;48.6248;2.2327;—;PETITS ENGINS
GO POMPE;GO;GO POMPE;95000;ARGENTEUIL;48.9479069;2.2481797;ILE DE FRANCE;France;Pavillon 8, 87 Rue de Calais, 95100 Argenteuil, France;48.9475;2.2470;—;BETON
SNB ;SNB ;SNB ;94000;VALENTON;48.7443189;2.4699741;ILE DE FRANCE;France;1 RUE VASCO DE GAMA, 94460 VALENTON;48.76761;2.44956;—;MATERIEL BLANC 
EVA INDUSTRIES;EVA INDUSTRIES;EVA INDUSTRIES;93000;AULNAY SOUS BOIS;48.934231;2.499789;ILE DE FRANCE;France;"ZONE INDUSTRIELLE DES MARDELLES
RUE BLAISE PASCAL
93605 AULNAY SOUS BOIS";48.9412151;2.49707110;—;MATERIEL NOIR 
EVO LOCATION;EVO LOCATION;;95000;SAINT OUEN L'AUMONE;49.0992941;2.1513279;ILE DE FRANCE;France;39 AVENUE DU CHATEAU, 95310 SAINT-OUEN-L'AUMONE;49.0419;2.1122;—;GRANDS ENGINS
UTD ;UTD ;UTD ;95000;PUISEUX PONTOISE ;49.0578349;2.0205371;ILE DE FRANCE;France;ROUTE DE BOISSY, 95650 PUISEUX-PONTOISE;49.0550;2.0230;—;GRANDS ENGINS
SCIABBARRASI RENT;;;91000;MORANGIS ;48.7022956;2.3367599;ILE DE FRANCE;France;"3 AVENUE DESCARTES
91420 MORANGIS ";48.700755;2.333800;—;GRANDS ENGINS
LM DISTRIBUTION;LM;LM DISTRIBUTION;95000;GOUSSAINVILLE;49.0323168;2.4733628;ILE DE FRANCE;France;"6-8 , Rue Joseph Jacquard
95190 GOUSSAINVILLE";49.0244063;2.4546856;—;PIERRES NATURELLES
IDF MARQUAGE;IDF ;IDF MARQUAGE;95000;GOUSSAINVILLE;49.0323168;2.4733628;ILE DE FRANCE;France;ZI DES BETHUNES, 27 RUE DE BRETAGNE, 95310 SAINT-OUEN-L'AUMONE;49.0435;2.1213;—;MARQUAGE /BALISAGE 
EUROPIERRE;EUROPIERRE;EUROPIERRE;77000;BUSSY SAINT GEORGES;48.8366447;2.7098422;ILE DE FRANCE;France;"19 Bis, Avenue Graham Bell
77600 BUSSY-SAINT-GEORGES";48.833027;2.694203;—;PIERRES NATURELLES
RFM;RFM;RFM;77000;ROISSYEN BRIE;48.7903787;2.6545195;ILE DE FRANCE;France;PARC D ACTIVITE DE LA FORGE, 3 IMPASSE DE LA LIEVRERIE, 77680 ROISSY-EN-BRIE;48.8247;2.6198;—;RECYCLAGE DES MATÉRIAUX
ATPL CASELAS ;ATPL;ATPL CASELAS ;95000;SAINT OUEN L'AUMONE;49.0992941;2.1513279;ILE DE FRANCE;France;PARC ACTIVITES VERT GALANT, 70 AVENUE DU CHATEAU, 95310 SAINT-OUEN-L'AUMONE;49.0418;2.1125;—;PETITS ENGINS
TERSEN;Ter;TERSEN SIÈGE SOCIAL;78000;MAGNY LES HAMEAUX;48.7353;2.0616;ILE DE FRANCE;France;"2, rue Jean Mermoz – CS 20503
78771 Magny-les-Hameaux Cedex";48.7436;2.0195;—;MATERIEL BLANC 
TERSEN;Ter;TERSEN-GENNEVILLIERS;92000;GENNEVILLIERS;48.9254221;2.2940122;ILE DE FRANCE;France;"13 RTE DU MOLE CENTRAL
92230 GENNEVILLIERS";48.9325;2.2987;ctm.gennevilliers@tersen-env.com / 01.74.40.01.70;MATERIEL BLANC 
TERSEN;Ter;TERSEN ;78000;CARRIERES SOUS POISSY;48.9437694;2.0341747;ILE DE FRANCE;France;"	AVENUE VANDERBILT 78955 CARRIERES-SOUS-POISSY";48.950001;2.03333;—;MATERIEL BLANC 
TERSEN;Ter;TERSEN ;78000;VERNEUIL SUR SEINE;48.9783;1.9736;ILE DE FRANCE;France;6 BOULEVARD ANDRE MALRAUX 78480 VERNEUIL-SUR-SEINE;48.97902;1.97512;—;MATERIEL BLANC 
TERSEN;Ter;TERSEN ;91000;MARCOUSSIS;48.6426;2.2389;ILE DE FRANCE;France;LIEU DIT LA FOLIE BESSIN 10 RUE DE MONTLHERY 91460 MARCOUSSIS;48.6398;2.2425;—;MATERIEL BLANC 
TERSEN;Ter;TERSEN ;95000;SAINT MARTIN DU TERTRE;49.108;2.35;ILE DE FRANCE;France;RTE DEPARTEMENTALE 909, 95270 SAINT-MARTIN-DU-TERTRE;49.1025;2.3490;—;MATERIEL BLANC 
BUSCA;Bu;BUSCA AVRAINVILLE;91000;AVRAINVILLE;48.5623782;2.247154;ILE DE FRANCE;France;Rue Louise de Vilmorin, 91630 Avrainville;48.5647;2.2464;avrainville@busca.fr / 01 69 95 11 73;FOURNITURES
BUSCA;Bu;BUSCA BONNEUIL;94000;BONNEUIL SUR MARNE;48.7742;2.4792;ILE DE FRANCE;France;23, Quai du Rancy, 94380 Bonneuil-sur-Marne;48.7742;2.4792;bonneuil@busca.fr / 01 58 42 19 70;FOURNITURES
BUSCA;Bu;BUSCA DAMMARIE LES LYS;77000;DAMMARIE LES LYS;48.517;2.6406;ILE DE FRANCE;France;951, Quai Voltaire, 77190 Dammarie-les-Lys;48.5170;2.6406;dammarie@busca.fr / 01 64 79 50 80;FOURNITURES
BUSCA;Bu;BUSCA GENNEVILLIERS;92000;GENNEVILLIERS;48.9254221;2.2940122;ILE DE FRANCE;France;3, impasse des Petits Marais, 92230 Gennevilliers;48.9333;2.3000;gennevilliers@busca.fr / 01 47 94 75 57;FOURNITURES
BUSCA;Bu;BUSCA MEZIERES SUR SEINE;78000;MEZIERES SUR SEINE;48.9597;1.8003;ILE DE FRANCE;France;Sente des Gravois, 78970 Mézières-sur-Seine;48.9597;1.8003;mezieres@busca.fr / 01 30 04 05 51;FOURNITURES
BUSCA;Bu;BUSCA SAINT THIBAULT DES VIGNES;77000;SAINT THIBAULT DES VIGNES;48.8692;2.6806;ILE DE FRANCE;France;1Bis Rue du Grand Pommeraye, 77400 Saint-Thibault-des-Vignes;48.8692;2.6806;st-thibault@busca.fr / 01 64 30 09 90;FOURNITURES
BUSCA;Bu;BUSCA TRAPPES;78000;TRAPPES;48.7743;2;ILE DE FRANCE;France;54 avenue des Frères Lumière, 78190 Trappes;48.7569;1.9792;trappes@busca.fr / 01 30 16 00 09;FOURNITURES
BUSCA;Bu;BUSCA VILLIERS LE BEL;95000;VILLIERS LE BEL;49.0089;2.3981;ILE DE FRANCE;France;Avenue du 8 mai 1945, 95400 Villiers-le-Bel;49.0089;2.3981;Villiers@busca.fr / 01 39 33 00 60;FOURNITURES
LARIVIERE;LA;LARIVIERE TRAPPES;78000;TRAPPES;48.7743;2.0178;ILE DE FRANCE;France;ZA Trappes-Elancourt, Allée du ruisseau de Gironde, 78190 Trappes;48.7743;2.0178;—;FOURNITURES
LARIVIERE;LA;LARIVIERE CHAMPLAN;91000;CHAMPLAN;48.7083;2.2786;ILE DE FRANCE;France;ZA Chemin Blanc, Rue du Chemin Blanc, 91160 Champlan;48.7083;2.2786;—;FOURNITURES
LARIVIERE;LA;LARIVIERE MELUN;77000;MELUN;48.539;2.6603;ILE DE FRANCE;France;305 rue Einstein, ZI Vaux le Pénil, 77000 Melun;48.5390;2.6603;—;FOURNITURES
LARIVIERE;LA;LARIVIERE MALAKOFF;92000;MALAKOFF;48.819;2.299;ILE DE FRANCE;France;54 avenue Augustin Dumont, 92240 Malakoff;48.8190;2.2990;—;FOURNITURES
LARIVIERE;LA;LARIVIERE PARIS 20;75000;PARIS;48.8534951;2.3483915;ILE DE FRANCE;France;58 boulevard de Charonne, 75020 Paris;48.8647;2.3984;—;FOURNITURES
LARIVIERE;LA;LARIVIERE PANTIN;93000;PANTIN;48.8956;2.4017;ILE DE FRANCE;France;67 avenue du Général Leclerc, 93500 Pantin;48.8956;2.4017;—;FOURNITURES
LARIVIERE;LA;LARIVIERE CHELLES;77000;CHELLES;48.8811;2.582;ILE DE FRANCE;France;54 rue Belle Île, 77507 Chelles;48.8811;2.5820;—;FOURNITURES
LARIVIERE;LA;LARIVIERE MANTES LA JOLIE;78000;EPONE;48.9543;1.8119;ILE DE FRANCE;France;ZA de la Couronne des Prés, Avenue de la Mauldre, 78680 Epône;48.9543;1.8119;—;FOURNITURES
LARIVIERE;LA;LARIVIERE BEAUCHAMP;95000;BEAUCHAMP;49.0167;2.2;ILE DE FRANCE;France;269 Chemin Jules César, 95250 Beauchamp;49.0167;2.2000;—;FOURNITURES
CLIM PLUS;clim+;PANTIN CLIM+;93000;PANTIN;48.8956;2.4017;ILE DE FRANCE;France;110 BIS AV DU GENERAL LECLERCHALLE DE PANTIN,93500 PANTIN;48.8992;2.4092;—;FOURNITURES
CLIM PLUS;clim+;CORBEIL CLIM+;91000;CORBEILESSONNES;48.6137734;2.4818087;ILE DE FRANCE;France;RUE FERNAND RAYNAUD,91100 CORBEIL-ESSONNES;48.6077;2.4685;—;FOURNITURES
CLIM PLUS;clim+;LA QUEUE EN BRIE CLIM+;94000;LA QUEUEEN BRIE;48.78639;2.57889;ILE DE FRANCE;France;20 AV DU GENERAL DE GAULLE,94510 LA QUEUE EN BRIE;48.7889;2.5768;—;FOURNITURES
CLIM PLUS;clim+;MAISONS-ALFORT CLIM+;94000;MAISONS ALFORT;48.8019;2.4326;ILE DE FRANCE;France;"88 AVENUE DE LA REPUBLIQUE
BP 47,94702 MAISONS-ALFORT";48.8019;2.4326;01 43 90 12 90;FOURNITURES
CLIM PLUS;clim+;VILLENEUVE CLIM+;92000;VILLENEUVE LA GARENNE;48.93472;2.32861;ILE DE FRANCE;France;4 Rue de la Litte, 92390 Villeneuve-la-Garenne;48.9407;2.3156;—;FOURNITURES
CLIM PLUS;clim+;NANTERRE CLIM+;92000;NANTERRE;48.89056;2.20889;ILE DE FRANCE;France;16 Avenue des Guilleraies, 92000 Nanterre;48.9053;2.2109;—;FOURNITURES
CLIM PLUS;clim+;AULNAY SOUS BOIS CLIM+;93000;AULNAY SOUS BOIS;48.934231;2.499789;ILE DE FRANCE;France;17 Rue Henri Becquerel, 93600 Aulnay-sous-Bois;48.9578;2.4939;—;FOURNITURES
CLIM PLUS;clim+;COIGNIERES CLIM+;78000;COIGNIERES;48.7671468;1.9193679;ILE DE FRANCE;France;6-8 Rue Marie Curie, 78310 Coignières;48.7444;1.9210;—;FOURNITURES
YESSS ELECTRIQUE;YESSS Electrique;AGENCE DE PARIS 10;75000;PARIS;48.8534951;2.3483915;ILE DE FRANCE;France;63 quai de Valmy;48.8716592;2.36480713;01 40 18 48 48 paris10@yesss-fr.com;FOURNITURES
YESSS ELECTRIQUE;YESSS Electrique;AGENCE DE PARIS 14;75000;PARIS;48.8534951;2.3483915;ILE DE FRANCE;France;26 rue Gassendi;48.834795;2.326649;01 43 20 21 21 paris14@yesss-fr.com;FOURNITURES
YESSS ELECTRIQUE;YESSS Electrique;AGENCE DE PARIS 13;75000;PARIS;48.8534951;2.3483915;ILE DE FRANCE;France;2 - 8 rue Albert EINSTEIN;48.82647897;2.38229021;01 40 01 00 10 paris13@yesss-fr.com;FOURNITURES
YESSS ELECTRIQUE;YESSS Electrique;AGENCE DE NEMOURS;77000;NEMOURS;48.2672;2.6927;ILE DE FRANCE;France;ZAC des hauteurs du Loing,27 chemin des Mazes;48.276131;2.70739;01 64 45 54 54 nemours@yesss-fr.com;FOURNITURES
YESSS ELECTRIQUE;YESSS Electrique;AGENCE DE PONTAULT COMBAULT;77000;PONTAULT COMBAULT;48.7973;2.6067;ILE DE FRANCE;France;16 - 18 rue de Paris,RN 4;48.77717746;2.59620667;01 60 18 21 21 pontaultcombault@yesss-fr.com;FOURNITURES
YESSS ELECTRIQUE;YESSS Electrique;AGENCE DE MEAUX;77000;MEAUX;48.9601;2.8883;ILE DE FRANCE;France;3 B avenue de la Victoire;48.96028543;2.91478872;01 60 09 55 66 meaux@yesss-fr.com;FOURNITURES
YESSS ELECTRIQUE;YESSS Electrique;AGENCE DE MELUN;77000;VAUX LE PENIL;48.5255542;2.6831642;ILE DE FRANCE;France;269 rue du Maréchal Juin,Accueil 46, Livraison 45;48.53134201;2.68960102;01 64 37 08 71 melun@yesss-fr.com;FOURNITURES
YESSS ELECTRIQUE;YESSS Electrique;AGENCE DE LIEUSAINT;77000;LIEUSAINT;48.6347;2.5486;ILE DE FRANCE;France;ZAC du Levant,333 avenue Marguerite PEREY - Bât. A2;48.6210777;2.5608329;01 60 02 50 02 lieusaint@yesss-fr.com;FOURNITURES
YESSS ELECTRIQUE;YESSS Electrique;AGENCE D'EVRY;91000;EVRY LISSES;48.6290;2.4350;ILE DE FRANCE;France;19 rue des Pyrénées;48.61031325;2.42940545;01 69 11 20 00 evry@yesss-fr.com;FOURNITURES
YESSS ELECTRIQUE;YESSS Electrique;AGENCE DE PALAISEAU;91000;PALAISEAU;48.7149;2.2450;ILE DE FRANCE;France;6 rue Ambroise Crozat;48.71317001;2.25543503;01 69 74 10 19 palaiseau@yesss-fr.com;FOURNITURES
YESSS ELECTRIQUE;YESSS Electrique;AGENCE DE MONTLHERY;91000;MONTLHERY;48.6403;2.2723;ILE DE FRANCE;France;31 rue du pont aux Pins;48.6495529;2.2737521;01 69 63 30 60 montlhery@yesss-fr.com;FOURNITURES
YESSS ELECTRIQUE;YESSS Electrique;AGENCE DE BAGNEUX;92000;BAGNEUX;48.795056;2.3027323;ILE DE FRANCE;France;10 allée du Parc de Garlande;48.80287949;2.29470921;01 55 48 91 91 chatillon@yesss-fr.com;FOURNITURES
YESSS ELECTRIQUE;YESSS Electrique;AGENCE DE VILLENEUVE LA GARENNE;92000;VILLENEUVE LA GARENNE;48.9370;2.3270;ILE DE FRANCE;France;32 - 34 avenue Marc SANGNIER;48.92845868;2.32604584;01 41 21 31 00 villeneuvelagarenne@yesss-fr.com;FOURNITURES
YESSS ELECTRIQUE;YESSS Electrique;AGENCE DE NANTERRE;92000;NANTERRE;48.8924;2.2066;ILE DE FRANCE;France;28 rue des Agglomérés;48.89579601;2.18367202;01 40 99 08 59 nanterre@yesss-fr.com;FOURNITURES
YESSS ELECTRIQUE;YESSS Electrique;AGENCE DE ROSNY;93000;ROSNY SOUS BOIS;48.8700;2.4830;ILE DE FRANCE;France;147 boulevard Alsace Lorraine;48.88412008;2.49020576;01 48 70 21 63 rosny@yesss-fr.com;FOURNITURES
YESSS ELECTRIQUE;YESSS Electrique;AGENCE D'AUBERVILLIERS;93000;AUBERVILLIERS;48.9146078;2.3821895;ILE DE FRANCE;France;65 rue des Cités;48.90374355;2.38660008;01 48 11 93 93 aubervilliers@yesss-fr.com;FOURNITURES
YESSS ELECTRIQUE;YESSS Electrique;AGENCE DE VALENTON;94000;VALENTON;48.7452;2.4634;ILE DE FRANCE;France;ZAC du champ Saint Julien,Rue Henri Moissan;48.75115243;2.45525122;01 43 89 44 00 valenton@yesss-fr.com;FOURNITURES
YESSS ELECTRIQUE;YESSS Electrique;AGENCE DE CHAMPIGNY;94000;CHAMPIGNY SUR MARNE;48.8162;2.4930;ILE DE FRANCE;France;16 rue Serpente;48.817259;2.531882;01 45 16 26 00 champigny@yesss.fr;FOURNITURES
YESSS ELECTRIQUE;YESSS Electrique;YESSS ÉLECTRIQUE (DIRECTION REGIONALE PARIS EST);95000;HERBLAY;48.9906;2.1680;ILE DE FRANCE;France;38 avenue du gros chêne;48.98365314;2.45681763;drparisest@yesss.fr;FOURNITURES
YESSS ELECTRIQUE;YESSS Electrique;AGENCE DE GONESSE;95000;GONESSE;48.9869;2.4500;ILE DE FRANCE;France;6 bis rue Berthelot;48.98351232;2.45705366;01 34 07 88 88 gonesse@yesss-fr.com;FOURNITURES
YESSS ELECTRIQUE;YESSS Electrique;YESSS PARIS OUEST (DIRECTION RÉGIONALE PARIS OUEST);95000;HERBLAY;48.9906;2.1680;ILE DE FRANCE;France;38 avenue du gros chêne;49.037557;2.1193479;dr.parisnordouest@yesss-fr.com;FOURNITURES
YESSS ELECTRIQUE;YESSS Electrique;AGENCE D'ARGENTEUIL;95000;ARGENTEUIL;48.9479069;2.2481797;ILE DE FRANCE;France;218 route de Pontoise;48.95522732;2.20580578;01 34 10 14 00 argenteuil@yesss-fr.com;FOURNITURES
YESSS ELECTRIQUE;YESSS Electrique;AGENCE DE CHAMPAGNE SUR OISE;95000;CHAMPAGNE SUR OISE;49.1353;2.2443;ILE DE FRANCE;France;1 rue Lavoisier Lot 6,ZA du Paradis;49.14394483;2.25528717;01 30 28 21 07 champagnesuroise@yesss-fr.com;FOURNITURES
YESSS ELECTRIQUE;YESSS Electrique;AGENCE DE SAINT LEU LA FORET;95000;SAINT LEU LA FORET;49.0167;2.2500;ILE DE FRANCE;France;1 rue Charles CROS;49.00309675;2.25041628;01 34 18 88 18 saintleu@yesss-fr.com;FOURNITURES
KILOUTOU ;KILOUT;KILOUTOU  ETAMPES ETRECHY;91000;ETRECHY;48.4935;2.1904;ILE DE FRANCE;France;ZAC des Gravelles, 9 rue Tulipiers, 91580 Étréchy;48.4949;2.1944;01 89 16 57 45;PETITS ENGINS
KILOUTOU ;KILOUT;KILOUTOU THIAIS;94000;THIAIS;48.7758;2.3879;ILE DE FRANCE;France;5 rue Alouettes, 94320 Thiais;48.7651;2.3923;01 83 62 99 47;PETITS ENGINS
KILOUTOU ;KILOUT;KILOUTOU TP PORT DE GENNEVILLIERS;92000;GENNEVILLIERS;48.9254221;2.2940122;ILE DE FRANCE;France;15 chemin Petits Marais, 92230 Gennevilliers;48.9295;2.2900;01 89 16 49 58;PETITS ENGINS
KILOUTOU ;KILOUT;KILOUTOU ORSAY SACLAY;91000;ORSAY;48.6979;2.1818;ILE DE FRANCE;France;16 rue Nicolas Appert, 91400 Orsay;48.7016;2.1870;01 59 30 29 58;PETITS ENGINS
KILOUTOU ;KILOUT;KILOUTOU IVRY-SUR-SEINE;94000;IVRY SUR SEINE;48.8130;2.4014;ILE DE FRANCE;France;122 boulevard Stalingrad, 94200 Ivry-sur-Seine;48.8163;2.3935;01 89 16 53 65;PETITS ENGINS
KILOUTOU ;KILOUT;KILOUTOU CLAMART;92000;CLAMART;48.7998;2.2629;ILE DE FRANCE;France;Avenue du Général de Gaulle, 92140 Clamart;48.8015;2.2676;01 89 16 51 91;PETITS ENGINS
KILOUTOU ;KILOUT;KILOUTOU  EPINAY-SUR-SEINE;93000;EPINAY SUR SEINE;48.95861;2.30361;ILE DE FRANCE;France;171 route de Saint-Leu, 93800 Épinay-sur-Seine;48.9590;2.3080;01 84 25 42 52;PETITS ENGINS
KILOUTOU ;KILOUT;KILOUTOU COIGNIÈRES;78000;COIGNIERES;48.7671468;1.9193679;ILE DE FRANCE;France;N10, 100 voie Latérale Nord, 78310 Coignières;48.7505;1.9233;01 84 25 42 33;PETITS ENGINS
KILOUTOU ;KILOUT;KILOUTOU BONNEUIL-SUR-MARNE  ;94000;BONNEUIL SUR MARNE;48.7742;2.4792;ILE DE FRANCE;France;La Plateforme du Bâtiment, 27 avenue du Maréchal Leclerc, 94380 Bonneuil-sur-Marne;48.7698;2.4850;01 89 16 53 38;PETITS ENGINS
KILOUTOU ;KILOUT;KILOUTOU OSNY;95000;OSNY;49.0628;2.0628;ILE DE FRANCE;France;Zone d'Activités La Demi Lieue, route départementale 915, 95520 Osny;49.0585;2.0650;01 89 16 58 30;PETITS ENGINS
KILOUTOU ;KILOUT;KILOUTOU TP MITRY-MORY;77000;MITRY MORY;48.9839;2.6167;ILE DE FRANCE;France;Zone Industrielle Mitry Compans, 4 rue Marcelin Berthelot, 77290 Mitry-Mory;48.9798;2.6075;01 89 16 50 44;PETITS ENGINS
KILOUTOU ;KILOUT;KILOUTOU  EL EVATION MAUREPAS;78000;MAUREPAS;48.7611;1.9442;ILE DE FRANCE;France;18 rue Montfort, 78310 Maurepas;48.7648;1.9172;—;PETITS ENGINS
KILOUTOU ;KILOUT;KILOUTOU ROISSY;95000;ROISSYEN FRANCE;49.0042;2.5156;ILE DE FRANCE;France;29 rue Jean Moulin, 95700 Roissy-en-France;49.0047;2.5190;01 89 16 58 38;PETITS ENGINS
KILOUTOU ;KILOUT;KILOUTOU PARIS 14ÈME PORTE D'ORL EANS;75000;PARIS;48.8534951;2.3483915;ILE DE FRANCE;France;1 rue Monticelli, 75014 Paris;48.8230;2.3255;01 89 16 56 25;PETITS ENGINS
KILOUTOU ;KILOUT;KILOUTOU BOUGIVAL;78000;BOUGIVAL;48.8631;2.1383;ILE DE FRANCE;France;Route Nationale 13, 14 rue Yvan Tourgueneff, 78380 Bougival;48.8635;2.1350;01 89 16 53 06;PETITS ENGINS
KILOUTOU ;KILOUT;KILOUTOU PARIS 18ÈME PORTE DE CLIGNANCOURT;75000;PARIS;48.8534951;2.3483915;ILE DE FRANCE;France;Boulevard Ney, 75018 Paris;48.8973;2.3445;01 89 16 55 87;PETITS ENGINS
KILOUTOU ;KILOUT;KILOUTOU SERVON;77000;SERVON;48.7161;2.5858;ILE DE FRANCE;France;Parking Baudry, route Nationale 19, 77170 Servon;48.7152;2.5850;01 89 16 56 62;PETITS ENGINS
KILOUTOU ;KILOUT;KILOUTOU LIVRY-GARGAN;93000;LIVRY GARGAN;48.917335;2.5298854;ILE DE FRANCE;France;29 avenue du Consul Général Nordling, 93190 Livry-Gargan;48.9175;2.5420;01 89 16 54 85;PETITS ENGINS
KILOUTOU ;KILOUT;KILOUTOU  EL EVATION ET TERRASSEMENT THIAIS;94000;THIAIS;48.7758;2.3879;ILE DE FRANCE;France;7 rue Alouettes, 94320 Thiais;48.7650;2.3920;01 83 62 99 47;PETITS ENGINS
KILOUTOU ;KILOUT;KILOUTOU VAUX-LE-P ENIL;77000;VAUX LE PENIL;48.5255542;2.6831642;ILE DE FRANCE;France;920 rue du Maréchal Juin, 77000 Vaux-le-Pénil;48.5280;2.6900;01 89 16 57 74;PETITS ENGINS
KILOUTOU ;KILOUT;KILOUTOU COIGNIÈRES  ;78000;COIGNIERES;48.7671468;1.9193679;ILE DE FRANCE;France;5 route Nationale 10, 78310 Coignières;48.7543;1.9383;01 89 16 57 81;PETITS ENGINS
KILOUTOU ;KILOUT;KILOUTOU COLOMBES;92000;COLOMBES;48.9225;2.2543;ILE DE FRANCE;France;Pont de Bezons, 372 rue Président Salvador Allende, 92700 Colombes;48.9196;2.2261;01 89 16 52 19;PETITS ENGINS
KILOUTOU ;KILOUT;KILOUTOU SAINTE-GENEVIÈVE-DES-BOIS;91000;SAINTE GENEVIEVE DES BOIS;48.6407872;2.3259129;ILE DE FRANCE;France;ZAC Croix Blanche, 23 avenue Hurepoix, 91700 Sainte-Geneviève-des-Bois;48.6258;2.3512;01 89 16 50 14;PETITS ENGINS
KILOUTOU ;KILOUT;KILOUTOU RAMBOUILLET;78000;RAMBOUILLET;48.6465;1.8258;ILE DE FRANCE;France;4 rue Pierre Métairie, 78120 Rambouillet;48.6224;1.8272;01 84 25 42 35;PETITS ENGINS
KILOUTOU ;KILOUT;KILOUTOU HERBLAY;95000;HERBLAY;48.9902;2.1646;ILE DE FRANCE;France;12 rue René Cassin, 95220 Herblay-sur-Seine;48.9997;2.1829;01 89 16 51 28;PETITS ENGINS
KILOUTOU ;KILOUT;KILOUTOU - SERVICE  EL EVATION ROSNY-SUR-SEINE;78000;ROSNY SUR SEINE;49.0002;1.6315;ILE DE FRANCE;France;Rue Buchelay, 78710 Rosny-sur-Seine;48.9917;1.6441;01 89 16 51 25;PETITS ENGINS
KILOUTOU ;KILOUT;KILOUTOU PARIS 19ÈME ROSA PARKS;75000;PARIS;48.8534951;2.3483915;ILE DE FRANCE;France;214 boulevard Macdonald, 75019 Paris;48.8989;2.3720;01 89 16 55 64;PETITS ENGINS
KILOUTOU ;KILOUT;KILOUTOU MELUN-S ENART SAVIGNY-LE-TEMPLE;77000;SAVIGNY LE TEMPLE;48.5833;2.5818;ILE DE FRANCE;France;Centre commercial Boissénart, 20 allée Cobalt, 77176 Savigny-le-Temple;48.5867;2.5935;01 89 16 57 66;PETITS ENGINS
KILOUTOU ;KILOUT;KILOUTOU  EMERAINVILLE;77000;EMERAINVILLE;48.8117;2.6247;ILE DE FRANCE;France;Boulevard Beaubourg, 77184 Émerainville;48.8160;2.6201;01 83 62 99 16;PETITS ENGINS
KILOUTOU ;KILOUT;KILOUTOU VILLEMOMBLE  ;93000;VILLEMOMBLE;48.8893;2.5098;ILE DE FRANCE;France;15 rue Laennec, 93250 Villemomble;48.8806;2.4975;01 89 16 54 57;PETITS ENGINS
KILOUTOU ;KILOUT;KILOUTOU CHELLES;77000;CHELLES;48.8787;2.5925;ILE DE FRANCE;France;163 avenue Gendarme Castermant, 77500 Chelles;48.8792;2.6176;01 89 16 56 92;PETITS ENGINS
KILOUTOU ;KILOUT;KILOUTOU BOULOGNE-BILLANCOURT;92000;BOULOGNE BILLANCOURT;48.8352;2.2409;ILE DE FRANCE;France;101 Route de la Reine, 92100 Boulogne-Billancourt;48.8398;2.2370;01 89 16 51 96;PETITS ENGINS
KILOUTOU ;KILOUT;KILOUTOU LA  DEFENSE PUTEAUX;92000;PUTEAUX;48.8804;2.2384;ILE DE FRANCE;France;9-11 rue Moulin, 92800 Puteaux;48.8876;2.2397;01 89 16 53 05;PETITS ENGINS
KILOUTOU ;KILOUT;KILOUTOU PARIS 12ÈME PORTE DE VINCENNES;75000;PARIS;48.8534951;2.3483915;ILE DE FRANCE;France;114 cours Vincennes, 75012 Paris;48.8467;2.4101;01 89 16 51 90;PETITS ENGINS
KILOUTOU ;KILOUT;KILOUTOU  EL EVATION COURCOURONNES;91000;COURCOURONNES;48.6186;2.4243;ILE DE FRANCE;France;4 Bis rue Bois Briard, 91080 Courcouronnes;48.6222;2.4210;01 89 16 50 28;PETITS ENGINS
KILOUTOU ;KILOUT;KILOUTOU NANTERRE  ;92000;NANTERRE;48.8924;2.2071;ILE DE FRANCE;France;9 rue Fondrières, 92000 Nanterre;48.8932;2.1835;01 89 16 52 24;PETITS ENGINS
KILOUTOU ;KILOUT;KILOUTOU CORBEIL-ESSONNES;91000;CORBEILESSONNES;48.6138;2.4428;ILE DE FRANCE;France;11 rue Fernand Raynaud, 91100 Corbeil-Essonnes;48.6233;2.4704;01 89 16 58 74;PETITS ENGINS
KILOUTOU ;KILOUT;KILOUTOU ROSNY-SOUS-BOIS;93000;ROSNY SOUS BOIS;48.8732;2.4849;ILE DE FRANCE;France;8 rue Lisbonne, 93110 Rosny-sous-Bois;48.8803;2.4745;01 89 16 54 63;PETITS ENGINS
KILOUTOU ;KILOUT;KILOUTOU PARIS 13ÈME;75000;PARIS;48.8534951;2.3483915;ILE DE FRANCE;France;73 rue Patay, 75013 Paris;48.8262;2.3726;01 89 16 56 07;PETITS ENGINS
KILOUTOU ;KILOUT;KILOUTOU CHAMPIGNY-SUR-MARNE  ;94000;CHAMPIGNY SUR MARNE;48.8118;2.5029;ILE DE FRANCE;France;89 rue Alexandre Fourny, 94500 Champigny-sur-Marne;48.8195;2.5232;01 89 16 56 83;PETITS ENGINS
KILOUTOU ;KILOUT;KILOUTOU COIGNIÈRES  ;78000;COIGNIERES;48.7671468;1.9193679;ILE DE FRANCE;France;5 route Nationale 10, 78310 Coignières;48.7543;1.9383;01 89 16 57 81;PETITS ENGINS
KILOUTOU ;KILOUT;KILOUTOU COLOMBES;92000;COLOMBES;48.9225;2.2543;ILE DE FRANCE;France;Pont de Bezons, 372 rue Président Salvador Allende, 92700 Colombes;48.9196;2.2261;01 89 16 52 19;PETITS ENGINS
KILOUTOU ;KILOUT;KILOUTOU SAINTE-GENEVIÈVE-DES-BOIS;91000;SAINTE GENEVIEVE DES BOIS;48.6407872;2.3259129;ILE DE FRANCE;France;ZAC Croix Blanche, 23 avenue Hurepoix, 91700 Sainte-Geneviève-des-Bois;48.6258;2.3512;01 89 16 50 14;PETITS ENGINS
KILOUTOU ;KILOUT;KILOUTOU RAMBOUILLET;78000;RAMBOUILLET;48.6465;1.8258;ILE DE FRANCE;France;4 rue Pierre Métairie, 78120 Rambouillet;48.6224;1.8272;01 84 25 42 35;PETITS ENGINS
KILOUTOU ;KILOUT;KILOUTOU HERBLAY;95000;HERBLAY;48.9902;2.1646;ILE DE FRANCE;France;12 rue René Cassin, 95220 Herblay-sur-Seine;48.9997;2.1829;01 89 16 51 28;PETITS ENGINS
KILOUTOU ;KILOUT;KILOUTOU ROSNY-SUR-SEINE -  EL EVATION;78000;ROSNY SUR SEINE;49.0002;1.6315;ILE DE FRANCE;France;Rue Buchelay, 78710 Rosny-sur-Seine;48.9917;1.6441;01 89 16 51 25;PETITS ENGINS
KILOUTOU ;KILOUT;KILOUTOU PARIS 19E ROSA PARKS;75000;PARIS;48.8534951;2.3483915;ILE DE FRANCE;France;214 boulevard Macdonald, 75019 Paris;48.8989;2.3720;01 89 16 55 64;PETITS ENGINS
KILOUTOU ;KILOUT;KILOUTOU SAVIGNY-LE-TEMPLE;77000;SAVIGNY LE TEMPLE;48.5833;2.5818;ILE DE FRANCE;France;Centre commercial Boissénart, 20 allée Cobalt;48.5867;2.5935;01 89 16 57 66;PETITS ENGINS
KILOUTOU ;KILOUT;KILOUTOU  EMERAINVILLE;77000;EMERAINVILLE;48.8117;2.6247;ILE DE FRANCE;France;Boulevard Beaubourg, 77184 Émerainville;48.8160;2.6201;01 83 62 99 16;PETITS ENGINS
KILOUTOU ;KILOUT;KILOUTOU VILLEMOMBLE;93000;VILLEMOMBLE;48.8893;2.5098;ILE DE FRANCE;France;15 rue Laennec, 93250 Villemomble;48.8806;2.4975;01 89 16 54 57;PETITS ENGINS
KILOUTOU ;KILOUT;KILOUTOU CHELLES;77000;CHELLES;48.8787;2.5925;ILE DE FRANCE;France;163 avenue Gendarme Castermant, 77500 Chelles;48.8792;2.6176;01 89 16 56 92;PETITS ENGINS
KILOUTOU ;KILOUT;KILOUTOU BOULOGNE-BILLANCOURT;92000;BOULOGNE BILLANCOURT;48.8352;2.2409;ILE DE FRANCE;France;101 Route de la Reine, 92100 Boulogne-Billancourt;48.8398;2.2370;01 89 16 51 96;PETITS ENGINS
KILOUTOU ;KILOUT;KILOUTOU LA D EFENSE PUTEAUX;92000;PUTEAUX;48.8804;2.2384;ILE DE FRANCE;France;9-11 rue Moulin, 92800 Puteaux;48.8876;2.2397;01 89 16 53 05;PETITS ENGINS
KILOUTOU ;KILOUT;KILOUTOU PARIS 12E;75000;PARIS;48.8534951;2.3483915;ILE DE FRANCE;France;114 cours de Vincennes, 75012 Paris;48.8467;2.4101;01 89 16 51 90;PETITS ENGINS
KILOUTOU ;KILOUT;KILOUTOU COURCOURONNES;91000;COURCOURONNES;48.6186;2.4243;ILE DE FRANCE;France;4 Bis rue Bois Briard, 91080 Courcouronnes;48.6222;2.4210;01 89 16 50 28;PETITS ENGINS
KILOUTOU ;KILOUT;KILOUTOU NANTERRE;92000;NANTERRE;48.8924;2.2071;ILE DE FRANCE;France;9 rue Fondrières, 92000 Nanterre;48.8932;2.1835;01 89 16 52 24;PETITS ENGINS
KILOUTOU ;KILOUT;KILOUTOU CORBEIL-ESSONNES;91000;CORBEILESSONNES;48.6138;2.4428;ILE DE FRANCE;France;11 rue Fernand Raynaud, 91100 Corbeil-Essonnes;48.6233;2.4704;01 89 16 58 74;PETITS ENGINS
KILOUTOU ;KILOUT;KILOUTOU ROSNY-SOUS-BOIS;93000;ROSNY SOUS BOIS;48.8732;2.4849;ILE DE FRANCE;France;8 rue de Lisbonne, 93110 Rosny-sous-Bois;48.8803;2.4745;01 89 16 54 63;PETITS ENGINS
KILOUTOU ;KILOUT;KILOUTOU PARIS 13E;75000;PARIS;48.8534951;2.3483915;ILE DE FRANCE;France;73 rue Patay, 75013 Paris;48.8262;2.3726;01 89 16 56 07;PETITS ENGINS
KILOUTOU ;KILOUT;KILOUTOU CHAMPIGNY-SUR-MARNE;94000;CHAMPIGNY SUR MARNE;48.8118;2.5029;ILE DE FRANCE;France;89 rue Alexandre Fourny, 94500 Champigny-sur-Marne;48.8195;2.5232;01 89 16 56 83;PETITS ENGINS
KILOUTOU ;KILOUT;KILOUTOU PARIS 8ÈME SAINT LAZARE;75000;PARIS;48.8534951;2.3483915;ILE DE FRANCE;France;71 rue de Rome 75008 Paris;48.8807;2.3210;01 89 16 55 83;PETITS ENGINS
KILOUTOU ;KILOUT;KILOUTOU MONTREUIL PORTE DE BAGNOLET;93000;MONTREUIL;48.8623;2.4412;ILE DE FRANCE;France;103 boulevard Chanzy 93100 Montreuil;48.8585;2.4282;01 89 16 55 57;PETITS ENGINS
KILOUTOU ;KILOUT;KILOUTOU LIVRY-GARGAN  ;93000;LIVRY GARGAN;48.917335;2.5298854;ILE DE FRANCE;France;55 rue Lucie Aubrac 93190 Livry Gargan;48.9300;2.5489;01 89 16 55 06;PETITS ENGINS
KILOUTOU ;KILOUT;KILOUTOU TP MOISSY-CRAMAYEL;77000;MOISSY CRAMAYEL;48.6254;2.5936;ILE DE FRANCE;France;ZI Moissy Cramayel 220 avenue Blaise Pascal 77550;48.6205;2.5699;01 89 16 50 88;PETITS ENGINS
KILOUTOU ;KILOUT;KILOUTOU SCEAUX;92000;SCEAUX;48.7778;2.2905;ILE DE FRANCE;France;138-140 avenue Gén Leclerc 92330 Sceaux;48.7755;2.3133;01 89 16 56 05;PETITS ENGINS
KILOUTOU ;KILOUT;KILOUTOU CHAVILLE;92000;CHAVILLE;48.8058;2.1883;ILE DE FRANCE;France;264 avenue Roger Salengro 92370 Chaville;48.8183;2.1968;01 89 16 51 92;PETITS ENGINS
KILOUTOU ;KILOUT;KILOUTOU CHENNEVIÈRES - ORMESSON;94000;CHENNEVIERES SUR MARNE;48.7997;2.5323;ILE DE FRANCE;France;Avenue Hippodrome 94430 Chennevières-sur-Marne;48.7929;2.5556;01 89 16 56 63;PETITS ENGINS
KILOUTOU ;KILOUT;KILOUTOU AUBERVILLIERS  ;93000;AUBERVILLIERS;48.9146078;2.3821895;ILE DE FRANCE;France;85 boulevard Félix Faure 93300 Aubervilliers;48.9057;2.3808;01 89 16 51 42;PETITS ENGINS
KILOUTOU ;KILOUT;KILOUTOU IVRY-SUR-SEINE  ;94000;IVRY SUR SEINE;48.8147;2.3995;ILE DE FRANCE;France;21 rue des Péniches 94200 Ivry-sur-Seine;48.8208;2.3930;01 89 16 53 37;PETITS ENGINS
KILOUTOU ;KILOUT;KILOUTOU  EL EVATION HERBLAY;95000;HERBLAY;48.9902;2.1646;ILE DE FRANCE;France;6 rue René Cassin 95220 Herblay-sur-Seine;48.9983;2.1837;01 89 16 51 28;PETITS ENGINS
KILOUTOU ;KILOUT;KILOUTOU VILLENEUVE-LA-GARENNE  ;92000;VILLENEUVE LA GARENNE;48.9372;2.3283;ILE DE FRANCE;France;2 avenue Longue Bertrane 92390 Villeneuve-la-Garenne;48.9281;2.3203;01 89 16 54 56;PETITS ENGINS
KILOUTOU ;KILOUT;BERGERAT MONNOYEUR LOCATION KILOUTOU;77000;POINCY;48.9667;2.9333;ILE DE FRANCE;France;31 avenue Meaux 77470 Poincy;48.9676;2.9157;01 60 01 28 88;PETITS ENGINS
KILOUTOU ;KILOUT;KILOUTOU SAINT-BRICE-SOUS-FORÊT  ;95000;SAINT BRICE SOUS FORET;48.9997;2.3569;ILE DE FRANCE;France;Sentier Chapelle St Nicolas 95350 Saint-Brice-sous-Forêt;48.9919;2.3649;01 89 16 58 43;PETITS ENGINS
KILOUTOU ;KILOUT;KILOUTOU MODULE PARIS SUD;94000;VILLENEUVE LE ROI;48.7369;2.4131;ILE DE FRANCE;France;Rue Jean Pierre Timbaud 94290 Villeneuve-le-Roi;48.7333;2.4333;01 89 16 51 29;PETITS ENGINS
KILOUTOU ;KILOUT;KILOUTOU SIGNALISATION;95000;GENICOURT;49.0911;2.0669;ILE DE FRANCE;France;35 rue des Fossettes 95650 Génicourt;49.0852;2.0706;09 72 37 75 75;PETITS ENGINS
KILOUTOU ;KILOUT;KILOUTOU CRETEIL;94000;CRETEIL;48.7833;2.4500;ILE DE FRANCE;France;Rue Fontaine Saint Christophe 94000 Créteil;48.7812;2.4393;01 89 16 53 08;PETITS ENGINS
KILOUTOU ;KILOUT;KILOUTOU ALFORTVILLE  ;94000;ALFORTVILLE;48.7994;2.4206;ILE DE FRANCE;France;9 chemin Villeneuve Saint-Georges 94140 Alfortville;48.7942;2.4312;01 89 16 53 09;PETITS ENGINS
KILOUTOU ;KILOUT;KILOUTOU  EL EVATION ET TERRASSEMENT GENNEVILLIERS;92000;GENNEVILLIERS;48.9254221;2.2940122;ILE DE FRANCE;France;88 avenue Vieux Chemin de Saint-Denis 92230 Gennevilliers;48.9288;2.3164;01 89 16 49 47;PETITS ENGINS
KILOUTOU ;KILOUT;KILOUTOU PIERRELAYE  ;95000;PIERRELAYE;49.0222;2.1553;ILE DE FRANCE;France;2 avenue Général Leclerc 95480 Pierrelaye;49.0235;2.1642;01 89 16 58 34;PETITS ENGINS
KILOUTOU ;KILOUT;KILOUTOU  ENERGIE ÎLE-DE-FRANCE;77000;SAVIGNY LE TEMPLE;48.5833;2.5818;ILE DE FRANCE;France;33 rue de l’Étain 77176 Savigny-le-Temple;48.5891;2.5889;01 89 16 58 68;PETITS ENGINS
KILOUTOU ;KILOUT;KILOUTOU HOUILLES;78000;HOUILLES;48.9210;2.1926;ILE DE FRANCE;France;105 boulevard Henri Barbusse 78800 Houilles;48.9222;2.1929;01 89 16 52 40;PETITS ENGINS
KILOUTOU ;KILOUT;KILOUTOU PARIS 20;75000;PARIS;48.8534951;2.3483915;ILE DE FRANCE;France;56 boulevard Mortier 75020 Paris;48.8695;2.4072;03 59 56 54 00;PETITS ENGINS
KILOUTOU ;KILOUT;KILOUTOU - SERVICE  EL EVATION ET TERRASSEMENT IDF NORD;95000;SAINT OUEN L'AUMONE;49.0992941;2.1513279;ILE DE FRANCE;France;16 rue Equerre 95310 Saint-Ouen-l'Aumône;49.0478;2.1085;01 59 30 29 77;PETITS ENGINS
KILOUTOU ;KILOUT;KILOUTOU SAINT-DENIS STADE DE FRANCE;93000;SAINT DENIS;48.9362;2.3574;ILE DE FRANCE;France;41 boulevard Anatole France 93200 Saint-Denis;48.9309;2.3567;01 89 16 55 60;PETITS ENGINS
KILOUTOU ;KILOUT;KILOUTOU PARIS 16 AUTEUIL;75000;PARIS;48.8534951;2.3483915;ILE DE FRANCE;France;Boulevard Murat 75016 Paris;48.8422;2.2588;01 89 16 51 99;PETITS ENGINS
KILOUTOU ;KILOUT;KILOUTOU - SERVICE  EL EVATION SAINT-OUEN-L'AUMÔNE;95000;SAINT OUEN L'AUMONE;49.0992941;2.1513279;ILE DE FRANCE;France;30 avenue Fonds de Vaux 95310 Saint-Ouen-l'Aumône;49.0492;2.1038;01 89 16 51 10;PETITS ENGINS
KILOUTOU ;KILOUT;KILOUTOU FORMATION MOISSY-CRAMAYEL;77000;MOISSY CRAMAYEL;48.6254;2.5936;ILE DE FRANCE;France;220 avenue Blaise Pascal 77550 Moissy-Cramayel;48.6205;2.5699;01 59 30 29 48;PETITS ENGINS
KILOUTOU ;KILOUT;KILOUTOU - SERVICE  EL EVATION ET TERRASSEMENT PARIS;94000;THIAIS;48.7650;2.3920;ILE DE FRANCE;France;Zone Senia 7 rue des Alouettes 94320 Thiais;48.7650;2.3920;01 59 30 29 88;PETITS ENGINS
KILOUTOU ;KILOUT;KILOUTOU FORMATION ROISSY-EN-FRANCE;95000;ROISSYEN FRANCE;49.0047;2.5190;ILE DE FRANCE;France;29 rue Jean Moulin 95700 Roissy-en-France;49.0047;2.5190;01 59 30 29 48;PETITS ENGINS
KILOUTOU ;KILOUT;KILOUTOU CLIMATEC;91000;SAINT PIERRE DU PERRAY;48.6106;2.5089;ILE DE FRANCE;France;45 rue du Trou Grillon 91280 Saint-Pierre-du-Perray;48.6115;2.5095;01 59 30 27 33;PETITS ENGINS
KILOUTOU ;KILOUT;KILOUTOU FORMATION BUCHELAY;78000;BUCHELAY;48.9800;1.6700;ILE DE FRANCE;France;3 rue des Piquettes 78200 Buchelay;48.9785;1.6692;01 59 30 24 36;PETITS ENGINS
FGG LOCATION;FGG LOCATION;FGG LOCATION;94000;BOISSY SAINT LEGER;48.7543;2.5120;ILE DE FRANCE;France;3 avenue Charles de Gaulle, 94470 Boissy-Saint-Léger;48.7556;2.5115;—;PETITS ENGINS
SPME;SPME;SPME;92000;GENNEVILLIERS;48.9254221;2.2940122;ILE DE FRANCE;France;SITE SPME GENNEVILLIERS 13 RTE DU MOLE CENTRAL 92230 GENNEVILLIERS;48.9347;2.2789;contact@spme-materiaux.fr / 01 47 94 24 40;FOURNITURES
SPME;SPME;SPME;94000;BONNEUIL SUR MARNE;48.7742;2.4792;ILE DE FRANCE;France;"CENTRALE DE BONNEUIL
7 RTE DE L'ILE ST JULIEN
94380 BONNEUIL SUR MARNE";48.7732;2.4938;—;FOURNITURES
EUROVIA;EUROVIA;EUROVIA;95000;SAINT GRATIEN;48.9649;2.2856;ILE DE FRANCE;France;78 bd du Maréchal Foch,95210 SAINT-GRATIEN;48.9658;2.2889;st-gratien@eurovia.com;FOURNITURES
MEL ;MATERIAUX ROUTIERS FRANCILIENS;MEL ;91000;MICHEL SUR ORGE;48.6345;2.3086;ILE DE FRANCE;France;13, avenue de Condorcet 91240 ST MICHEL SUR ORGE;48.6360;2.3028;"
dunia.gouchet@eurovia.com";MATERIEL BLANC 
MRF;MATERIAUX ROUTIERS FRANCILIENS;MRF (SIÈGE SOCIAL);94000;BONNEUIL SUR MARNE;48.7742;2.4792;ILE DE FRANCE;France;"10 carrefour Charles de Gaulle
94380 Bonneuil sur Marne";48.7705;2.4889;—;MATERIEL BLANC 
MEL;MEL ;MEL GRIGNY;91000;GRIGNY;48.6530;2.3880;ILE DE FRANCE;France;"ZONE INDUSTRIELLE
LA PLAINE BASSE
91350 GRIGNY";48.6552;2.3910;—;FOURNITURES
MEL;MEL;MEL THIVERVAL-GRIGNON;78000;THIVERVAL GRIGNON ;48.8470;1.9260;ILE DE FRANCE;France;"ZA DU PONT CAILLOUX
RTE DES NOURRICES
78850 THIVERVAL-GRIGNON";48.8465;1.9282;—;FOURNITURES
MEL;MEL;MEL MOISSY-CRAMAYEL;77000;MOISSY CRAMAYEL;48.6254;2.5936;ILE DE FRANCE;France;"RUE LOUIS DE BROGLIE
77550 MOISSY-CRAMAYEL";48.6260;2.5942;—;FOURNITURES
MRF;MATERIAUX ROUTIERS FRANCILIENS;MRF;93000;AUBERVILLIERS;48.9146078;2.3821895;ILE DE FRANCE;France;"QUAI ADRIEN AGNES
93300 AUBERVILLIERS";48.9115;2.3852;—;FOURNITURES
SPL;SPL;SPL NANTERRE;92000;NANTERRE;48.8920;2.2060;ILE DE FRANCE;France;"AVENUE JULES QUENTIN
92000 NANTERRE";48.8925;2.2070;—;FOURNITURES
MEL;MEL;MEL VERT-LE-GRAND;91000;VERT LE GRAND;48.5680;2.3530;ILE DE FRANCE;France;"LD L'ORME AUX CHATS
91810 VERT-LE-GRAND";48.5686;2.3542;—;FOURNITURES
SPL;SPL;SPL LES MUREAUX;78000;LES MUREAUX;48.9931578;1.909928;ILE DE FRANCE;France;"ZI LES GARENNES
RUE DU PETIT CHEMIN DE FLINS
78130 LES MUREAUX";48.9915;1.9102;—;FOURNITURES
SPL;SPL;SPL GENNEVILLIERS;92000;GENNEVILLIERS;48.9254221;2.2940122;ILE DE FRANCE;France;"13 ROUTE DU PORT CHARBONNIER
92230 GENNEVILLIERS";48.9340;2.3012;—;FOURNITURES
MRF;MRF;MRF MASSY;91000;MASSY;48.730158;2.2766735;ILE DE FRANCE;France;ROUTE DE LA BONDE,91300 MASSY;48.7306;2.2741;—;FOURNITURES
PROQUAI ;Proquai ;PROQUAI ;95000;FREPILLON;49.0472;2.1861;ILE DE FRANCE;France;2 Chemin de la Justice ZAE du Montubois Lot 9 95740 FREPILLON;49.058404;2.211823;" 01 39 60 62 97
contact@proquai.fr";FOURNITURES
PARC NET;PARC NET SERVICES;PARC NET SERVICES;95000;MERY SUR OISE;49.0580;2.1920;ILE DE FRANCE;France;23 CHEMIN DE PONTOISE, 95540 MERY-SUR-OISE;49.056669;2.16576;03 3 44 54 00 46 / europeennedenegoce@orange.fr;PETITS ENGINS
EUROPEENNE DE NEGOCE;EUROPEENNE DE NEGOCE;EUROPEENNE DE NEGOCE;60000;PONTARME;49.1580;2.5370;ILE DE FRANCE;France;LD LES GERIOLES, LD SOUS BOIS DU MINISTRE RN 17, 60520 PONTARME;49.1535436;2.5503489;;PIERRES NATURELLES
SOLOC RABOTAGE ( TECHNO VIA ) ;SOLOC RABOTAGE ( techno via ) ;SOLOC RABOTAGE ( TECHNO VIA ) ;77000;LIEUSAINT;48.6345;2.5480;ILE DE FRANCE;France;"PARC D'ACTIVITES PARISUD 1
44 RUE DU LUXEMBOURG
77127 LIEUSAINT";48.6413355;2.5534133;;PETITS ENGINS
RIVAL;RIVAL;RIVAL;75000;PARIS;48.6345;2.5480;ILE DE FRANCE;France;36 AVENUE HOCHE, 75008 PARIS;48.8757693;2.2993555;—;MATERIEL BLANC 
ESPACE CLOTURE ;ESPACE CLOTURE ;ESPACE CLOTURE ;77000;LIEUSAINT;48.6345;2.5480;ILE DE FRANCE;France;ZAC DU LEVANT, 535 AVENUE MARGUERITE PEREY, 77127 LIEUSAINT;48.619504;2.562987;—;FOURNITURES
ESPACE CLOTURE ;ESPACE CLOTURE ;ESPACE CLOTURE ;78000;GUITRANCOURT;49.0246;1.8103;ILE DE FRANCE;France;"ROUTE DEPARTEMENTALE 190
37 ROUTE DE MEULAN
78440 GUITRANCOURT";49.0079198;1.7781361;—;FOURNITURES
;;;;;;;;;;;;;
;;;;;;;;;;;;;
;;;;;;;;;;;;;
;;;;;;;;;;;;;
;;;;;;;;;;;;;
;;;;;;;;;;;;;
;;;;;;;;;;;;;
;;;;;;;;;;;;;
;;;;;;;;;;;;;
;;;;;;;;;;;;;
;;;;;;;;;;;;;
;;;;;;;;;;;;;
;;;;;;;;;;;;;
;;;;;;;;;;;;;
;;;;;;;;;;;;;
;;;;;;;;;;;;;
;;;;;;;;;;;;;
;;;;;;;;;;;;;
;;;;;;;;;;;;;
;;;;;;;;;;;;;
;;;;;;;;;;;;;
;;;;;;;;;;;;;
;;;;;;;;;;;;;
;;;;;;;;;;;;;
;;;;;;;;;;;;;
;;;;;;;;;;;;;
;;;;;;;;;;;;;
;;;;;;;;;;;;;
;;;;;;;;;;;;;
;;;;;;;;;;;;;
;;;;;;;;;;;;;
;;;;;;;;;;;;;
;;;;;;;;;;;;;
;;;;;;;;;;;;;
;;;;;;;;;;;;;
;;;;;;;;;;;;;
;;;;;;;;;;;;;
;;;;;;;;;;;;;
;;;;;;;;;;;;;
;;;;;;;;;;;;;
;;;;;;;;;;;;;
;;;;;;;;;;;;;
;;;;;;;;;;;;;
;;;;;;;;;;;;;
;;;;;;;;;;;;;
;;;;;;;;;;;;;
;;;;;;;;;;;;;
;;;;;;;;;;;;;
;;;;;;;;;;;;;
;;;;;;;;;;;;;
;;;;;;;;;;;;;
;;;;;;;;;;;;;
;;;;;;;;;;;;;
;;;;;;;;;;;;;
;;;;;;;;;;;;;
;;;;;;;;;;;;;
;;;;;;;;;;;;;
;;;;;;;;;;;;;
;;;;;;;;;;;;;
;;;;;;;;;;;;;
;;;;;;;;;;;;;
;;;;;;;;;;;;;
;;;;;;;;;;;;;
;;;;;;;;;;;;;
;;;;;;;;;;;;;
;;;;;;;;;;;;;
;;;;;;;;;;;;;
;;;;;;;;;;;;;
;;;;;;;;;;;;;
;;;;;;;;;;;;;
;;;;;;;;;;;;;
;;;;;;;;;;;;;
;;;;;;;;;;;;;
;;;;;;;;;;;;;
;;;;;;;;;;;;;
;;;;;;;;;;;;;
;;;;;;;;;;;;;
;;;;;;;;;;;;;
;;;;;;;;;;;;;
;;;;;;;;;;;;;
;;;;;;;;;;;;;
;;;;;;;;;;;;;
;;;;;;;;;;;;;
;;;;;;;;;;;;;
;;;;;;;;;;;;;
;;;;;;;;;;;;;
;;;;;;;;;;;;;
;;;;;;;;;;;;;
;;;;;;;;;;;;;
;;;;;;;;;;;;;
;;;;;;;;;;;;;
;;;;;;;;;;;;;
;;;;;;;;;;;;;
;;;;;;;;;;;;;
;;;;;;;;;;;;;
;;;;;;;;;;;;;
;;;;;;;;;;;;;
;;;;;;;;;;;;;
;;;;;;;;;;;;;
;;;;;;;;;;;;;
;;;;;;;;;;;;;
;;;;;;;;;;;;;
;;;;;;;;;;;;;
;;;;;;;;;;;;;
;;;;;;;;;;;;;
;;;;;;;;;;;;;
;;;;;;;;;;;;;
;;;;;;;;;;;;;
;;;;;;;;;;;;;
;;;;;;;;;;;;;
;;;;;;;;;;;;;
;;;;;;;;;;;;;
;;;;;;;;;;;;;
;;;;;;;;;;;;;
;;;;;;;;;;;;;
;;;;;;;;;;;;;
;;;;;;;;;;;;;
;;;;;;;;;;;;;
;;;;;;;;;;;;;
;;;;;;;;;;;;;
;;;;;;;;;;;;;
;;;;;;;;;;;;;
;;;;;;;;;;;;;
;;;;;;;;;;;;;
;;;;;;;;;;;;;
;;;;;;;;;;;;;
;;;;;;;;;;;;;
;;;;;;;;;;;;;
;;;;;;;;;;;;;
;;;;;;;;;;;;;
;;;;;;;;;;;;;
;;;;;;;;;;;;;
;;;;;;;;;;;;;
;;;;;;;;;;;;;
;;;;;;;;;;;;;
;;;;;;;;;;;;;
;;;;;;;;;;;;;
;;;;;;;;;;;;;
;;;;;;;;;;;;;
;;;;;;;;;;;;;
;;;;;;;;;;;;;
;;;;;;;;;;;;;
;;;;;;;;;;;;;
;;;;;;;;;;;;;
;;;;;;;;;;;;;
;;;;;;;;;;;;;
;;;;;;;;;;;;;
;;;;;;;;;;;;;
;;;;;;;;;;;;;
;;;;;;;;;;;;;
;;;;;;;;;;;;;
;;;;;;;;;;;;;
;;;;;;;;;;;;;
;;;;;;;;;;;;;
;;;;;;;;;;;;;
;;;;;;;;;;;;;
;;;;;;;;;;;;;
;;;;;;;;;;;;;
;;;;;;;;;;;;;
;;;;;;;;;;;;;
;;;;;;;;;;;;;
;;;;;;;;;;;;;
;;;;;;;;;;;;;
;;;;;;;;;;;;;
;;;;;;;;;;;;;
;;;;;;;;;;;;;
;;;;;;;;;;;;;
;;;;;;;;;;;;;
;;;;;;;;;;;;;
;;;;;;;;;;;;;
;;;;;;;;;;;;;
;;;;;;;;;;;;;
;;;;;;;;;;;;;
;;;;;;;;;;;;;
;;;;;;;;;;;;;
;;;;;;;;;;;;;
;;;;;;;;;;;;;
;;;;;;;;;;;;;
;;;;;;;;;;;;;
;;;;;;;;;;;;;
;;;;;;;;;;;;;
;;;;;;;;;;;;;
;;;;;;;;;;;;;
;;;;;;;;;;;;;
;;;;;;;;;;;;;
;;;;;;;;;;;;;
;;;;;;;;;;;;;
;;;;;;;;;;;;;
;;;;;;;;;;;;;
;;;;;;;;;;;;;
;;;;;;;;;;;;;
;;;;;;;;;;;;;
;;;;;;;;;;;;;
;;;;;;;;;;;;;
;;;;;;;;;;;;;
;;;;;;;;;;;;;
;;;;;;;;;;;;;
;;;;;;;;;;;;;
;;;;;;;;;;;;;
;;;;;;;;;;;;;
;;;;;;;;;;;;;
;;;;;;;;;;;;;
;;;;;;;;;;;;;
;;;;;;;;;;;;;
;;;;;;;;;;;;;
;;;;;;;;;;;;;
;;;;;;;;;;;;;
;;;;;;;;;;;;;
;;;;;;;;;;;;;
;;;;;;;;;;;;;
;;;;;;;;;;;;;
;;;;;;;;;;;;;
;;;;;;;;;;;;;
;;;;;;;;;;;;;
;;;;;;;;;;;;;
;;;;;;;;;;;;;
;;;;;;;;;;;;;
;;;;;;;;;;;;;
;;;;;;;;;;;;;
;;;;;;;;;;;;;
;;;;;;;;;;;;;
;;;;;;;;;;;;;
;;;;;;;;;;;;;
;;;;;;;;;;;;;
;;;;;;;;;;;;;
;;;;;;;;;;;;;
;;;;;;;;;;;;;
;;;;;;;;;;;;;
;;;;;;;;;;;;;
;;;;;;;;;;;;;
;;;;;;;;;;;;;
;;;;;;;;;;;;;
;;;;;;;;;;;;;
;;;;;;;;;;;;;
;;;;;;;;;;;;;
;;;;;;;;;;;;;
;;;;;;;;;;;;;
;;;;;;;;;;;;;
;;;;;;;;;;;;;
;;;;;;;;;;;;;
;;;;;;;;;;;;;
;;;;;;;;;;;;;
;;;;;;;;;;;;;
;;;;;;;;;;;;;
;;;;;;;;;;;;;
;;;;;;;;;;;;;
;;;;;;;;;;;;;
;;;;;;;;;;;;;
;;;;;;;;;;;;;
;;;;;;;;;;;;;
;;;;;;;;;;;;;
;;;;;;;;;;;;;
;;;;;;;;;;;;;
;;;;;;;;;;;;;
;;;;;;;;;;;;;
;;;;;;;;;;;;;
;;;;;;;;;;;;;
;;;;;;;;;;;;;
;;;;;;;;;;;;;
;;;;;;;;;;;;;
;;;;;;;;;;;;;
;;;;;;;;;;;;;
;;;;;;;;;;;;;
;;;;;;;;;;;;;
;;;;;;;;;;;;;
;;;;;;;;;;;;;
;;;;;;;;;;;;;
;;;;;;;;;;;;;
;;;;;;;;;;;;;
;;;;;;;;;;;;;
;;;;;;;;;;;;;
;;;;;;;;;;;;;
;;;;;;;;;;;;;
;;;;;;;;;;;;;
;;;;;;;;;;;;;
;;;;;;;;;;;;;
;;;;;;;;;;;;;
;;;;;;;;;;;;;
;;;;;;;;;;;;;
;;;;;;;;;;;;;
;;;;;;;;;;;;;
;;;;;;;;;;;;;
;;;;;;;;;;;;;
;;;;;;;;;;;;;
;;;;;;;;;;;;;
;;;;;;;;;;;;;
;;;;;;;;;;;;;
;;;;;;;;;;;;;
;;;;;;;;;;;;;
;;;;;;;;;;;;;
;;;;;;;;;;;;;
;;;;;;;;;;;;;
;;;;;;;;;;;;;
;;;;;;;;;;;;;
;;;;;;;;;;;;;
;;;;;;;;;;;;;
;;;;;;;;;;;;;
;;;;;;;;;;;;;
;;;;;;;;;;;;;
;;;;;;;;;;;;;
;;;;;;;;;;;;;
;;;;;;;;;;;;;
;;;;;;;;;;;;;
;;;;;;;;;;;;;
;;;;;;;;;;;;;
;;;;;;;;;;;;;
;;;;;;;;;;;;;
;;;;;;;;;;;;;
LAFARGE BETONS;LAFARGE BETONS;LAFARGE BETONS;92000;NANTERRE;48.6127;2.3775;ILE DE FRANCE;France;5 Rue Lavoisier 92000 Nanterre;48.895;2.206;—;BETON
LAFARGE BETONS;LAFARGE BETONS;LAFARGE BETONS;78000;TRAPPES;48.9020;2.4890;ILE DE FRANCE;France;49 Avenue Georges Politzer 78190 Trappes;48.773;1.983;—;BETON
LAFARGE BETONS;LAFARGE BETONS;LAFARGE BETONS;91000;WISSOUS;48.5560;2.2100;ILE DE FRANCE;France;Rue du Berger 91320 Wissous;48.731;2.326;—;BETON
LAFARGE BETONS;LAFARGE BETONS;LAFARGE BETONS;77000;BRIE COMTE ROBERT;48.5560;2.2100;ILE DE FRANCE;France;ZAC du Tuboeuf 77170 Brie-Comte-Robert;48.685;2.609;—;BETON
LAFARGE BETONS;LAFARGE BETONS;LAFARGE BETONS;77000;CHELLES;48.9024;2.4229;ILE DE FRANCE;France;Chemin du Corps de Garde 77500 Chelles;48.879;2.59;—;BETON
LAFARGE BETONS;LAFARGE BETONS;LAFARGE BETONS;95000;GOUSSAINVILLE;48.9020;2.4890;ILE DE FRANCE;France;ZI Pont de la Brèche 95190 Goussainville;49.028;2.466;—;BETON
HEIDELBERG MATERIALS FRANCE BETONS (UNIBETON);HEIDELBERG MATERIALS FRANCE BETONS (UNIBETON);HEIDELBERG MATERIALS FRANCE BETONS (UNIBETON);95000;SARCELLES;48.7994;2.0233;ILE DE FRANCE;France;ZI des Mureaux, Route de Groslay 95200 Sarcelles;48.814;2.385;—;BETON
HEIDELBERG MATERIALS FRANCE BETONS (UNIBETON);HEIDELBERG MATERIALS FRANCE BETONS (UNIBETON);HEIDELBERG MATERIALS FRANCE BETONS (UNIBETON);94000;IVRY SUR SEINE;48.9020;2.4890;ILE DE FRANCE;France;Quai Marcel Boyer 94200 Ivry-sur-Seine;48.77;2.49;—;BETON
HEIDELBERG MATERIALS FRANCE BETONS (UNIBETON);HEIDELBERG MATERIALS FRANCE BETONS (UNIBETON);HEIDELBERG MATERIALS FRANCE BETONS (UNIBETON);94000;BONNEUIL SUR MARNE;49.0167;2.2036;ILE DE FRANCE;France;ZI Port de Bonneuil, 9 Route de l’Île Saint-Julien 94380 Bonneuil-sur-Marne;48.98;2.83;—;BETON
HEIDELBERG MATERIALS FRANCE BETONS (UNIBETON);HEIDELBERG MATERIALS FRANCE BETONS (UNIBETON);HEIDELBERG MATERIALS FRANCE BETONS (UNIBETON);77000;POINCY;48.9024;2.4229;ILE DE FRANCE;France;Chemin des Bordes 77470 Poincy;48.876;2.71;—;BETON
HEIDELBERG MATERIALS FRANCE BETONS (UNIBETON);HEIDELBERG MATERIALS FRANCE BETONS (UNIBETON);HEIDELBERG MATERIALS FRANCE BETONS (UNIBETON);77000;LAGNY SUR MARNE;48.6127;2.3775;ILE DE FRANCE;France;Zone portuaire, Rue Freycinet 77400 Lagny-sur-Marne;48.382;2.902;—;BETON
HEIDELBERG MATERIALS FRANCE BETONS (UNIBETON);HEIDELBERG MATERIALS FRANCE BETONS (UNIBETON);HEIDELBERG MATERIALS FRANCE BETONS (UNIBETON);77000;LA GRANDE PAROISSE;48.9020;2.4890;ILE DE FRANCE;France;Pincent 77130 La Grande-Paroisse;48.895;2.206;—;BETON
EQIOM BETONS;EQIOM BETONS;EQIOM NANTERRE;92000;NANTERRE;49.0167;2.2036;ILE DE FRANCE;France;ZI du Port, 21 Rue Lavoisier, 92000 Nanterre;48.8950;2.2060;—;FOURNITURES
EQIOM BETONS;EQIOM BETONS;EQIOM PARIS 13E;75000;PARIS;49.1680;2.2980;ILE DE FRANCE;France;Face au 70 Quai Panhard et Levassor, Port de Tolbiac, 75013 Paris;48.8340;2.3750;—;FOURNITURES
EQIOM BETONS;EQIOM BETONS;EQIOM PARIS 17E;75000;PARIS;48.6127;2.3775;ILE DE FRANCE;France;39–41 Boulevard de Douaumont, 75017 Paris;48.898;2.403;—;FOURNITURES
EQIOM BETONS;EQIOM BETONS;EQIOM PANTIN;93000;PANTIN;48.9020;2.4890;ILE DE FRANCE;France;Chemin Latéral au Chemin de Fer, 93500 Pantin;48.906;2.477;—;FOURNITURES
EQIOM BETONS;EQIOM BETONS;EQIOM BONDY;93000;BONDY;48.5560;2.2100;ILE DE FRANCE;France;Chemin de Halage, Canal de l’Ourcq, 93140 Bondy;49.035;2.86;—;FOURNITURES
EQIOM BETONS;EQIOM BETONS;EQIOM SAINT-SOUPPLETS;77000;SAINT SOUPPLETS;48.5560;2.2100;ILE DE FRANCE;France;ZI du Sauvoy, 8 Avenue du Montboulon, 77165 Saint-Soupplets;49.017;2.597;—;FOURNITURES
EQIOM BETONS;EQIOM BETONS;EQIOM LE MESNIL-AMELOT;77000;LE MESNIL AMELOT;48.9024;2.4229;ILE DE FRANCE;France;Lot du Chantier Est, BP 25, 77990 Le Mesnil-Amelot;49.013;2.2;—;FOURNITURES
ENTREPRISE MARQUES;ENTREPRISE MARQUES;ENTREPRISE MARQUES;95000;BEAUCHAMP;48.9020;2.4890;ILE DE FRANCE;France;16 RUE DENIS PAPIN, 95250 BEAUCHAMP;48.75;2.469;—;GRANDS ENGINS
MRB MATERIAUX ROUTIERS DE BONNEUIL;MRB MATERIAUX ROUTIERS DE BONNEUIL;MRB MATERIAUX ROUTIERS DE BONNEUIL;94000;VALENTON;48.7994;2.0233;ILE DE FRANCE;France;"STE NOUVELLE DE BALLASTIERES
1 RUE VASCO DE GAMA
94460 VALENTON";48.814;2.385;—;FOURNITURES
POINT P;P.P;POINT P;93000;LIVRY GARGAN;48.9020;2.4890;ILE DE FRANCE;France;51 bd Robert shumann- Livry Gargan 93190;48.9190;2.5360;01 49 36 25 25;FOURNITURES
POINT P;P.P;POINT P;77000;MARNESAINT THIBAULT;49.0167;2.2036;ILE DE FRANCE;France;11 av de la Courtilière,  77400 Marne Saint-Thibault ;48.8740;2.7010;01 64 12 45 45;FOURNITURES
PCH CHADAPAUX;PCH CHADAPAUX;PCH CHADAPAUX;93000;BOBIGNY;48.9024;2.4229;ILE DE FRANCE;France;88 Rue Saint André;48.902371;2.422926;—;FOURNITURES
PCH CHADAPAUX;PCH CHADAPAUX;PCH CHADAPAUX;75000;PARIS;48.9020;2.4890;ILE DE FRANCE;France;170 Rue Ordener;48.901900;2.206900;—;FOURNITURES
PCH CHADAPAUX;PCH CHADAPAUX;PCH CHADAPAUX;75000;PARIS;49.0167;2.2036;ILE DE FRANCE;France;10 Rue Franquet;48.814000;3.083000;—;FOURNITURES
PCH CHADAPAUX;PCH CHADAPAUX;PCH CHADAPAUX;92000;NANTERRE;49.1680;2.2980;ILE DE FRANCE;France;25 Rue des Hautes Pâtures;48.534000;2.628000;—;FOURNITURES
PCH CHADAPAUX;PCH CHADAPAUX;PCH CHADAPAUX;77000;PROVINS;48.6127;2.3775;ILE DE FRANCE;France;ZI Champbenoist, Avenue de la Voulzie;48.765000;2.679000;—;FOURNITURES
PCH CHADAPAUX;PCH CHADAPAUX;PCH CHADAPAUX;77000;COULOMMIERS;48.9020;2.4890;ILE DE FRANCE;France;ZI 10 Rue de l’Orgeval;48.429000;2.755000;—;FOURNITURES
PCH CHADAPAUX;PCH CHADAPAUX;PCH CHADAPAUX;77000;FONTAINEBLEAU;48.5560;2.2100;ILE DE FRANCE;France;169 Rue Grande;48.754000;2.515000;—;FOURNITURES
PCH CHADAPAUX;PCH CHADAPAUX;PCH CHADAPAUX;77000;MEAUX;48.5560;2.2100;ILE DE FRANCE;France;22 Avenue de la Victoire;48.902371;2.422926;—;FOURNITURES
PCH CHADAPAUX;PCH CHADAPAUX;PCH CHADAPAUX;77000;PONTAULT COMBAULT;48.9024;2.4229;ILE DE FRANCE;France;26 Rue de Paris;48.901900;2.206900;—;FOURNITURES
PCH CHADAPAUX;PCH CHADAPAUX;PCH CHADAPAUX;77000;LE MEE SUR SEINE;48.9020;2.4890;ILE DE FRANCE;France;RN 446 Rue Jean Baptiste Colbert;48.814000;3.083000;—;FOURNITURES
PCH CHADAPAUX;PCH CHADAPAUX;PCH CHADAPAUX;78000;ORGEVAL;48.7994;2.0233;ILE DE FRANCE;France;Blanche 1112 Route des Quarante Sous;48.534000;2.628000;—;FOURNITURES
PCH CHADAPAUX;PCH CHADAPAUX;PCH CHADAPAUX;77000;OZOIR LA FERRIERE;48.9020;2.4890;ILE DE FRANCE;France;26-28 Lieudit Forêt d’Armainvilliers;48.765000;2.679000;—;FOURNITURES
PCH CHADAPAUX;PCH CHADAPAUX;PCH CHADAPAUX;77000;SAMOREAU;49.0167;2.2036;ILE DE FRANCE;France;Voie de la Liberté;48.429000;2.755000;—;FOURNITURES
PCH CHADAPAUX;PCH CHADAPAUX;PCH CHADAPAUX;94000;CHAMPIGNY SUR MARNE;48.9024;2.4229;ILE DE FRANCE;France;82 Avenue Roger Salengro;48.754000;2.515000;—;FOURNITURES
PCH CHADAPAUX;PCH CHADAPAUX;PCH CHADAPAUX;75000;PARIS;48.8534951;2.3483915;ILE DE FRANCE;France;6 Rue Abel;48.902371;2.422926;—;FOURNITURES
PCH CHADAPAUX;PCH CHADAPAUX;PCH CHADAPAUX;75000;PARIS;48.8534951;2.3483915;ILE DE FRANCE;France;45-49 Rue de Patay;48.901900;2.206900;—;FOURNITURES
PCH CHADAPAUX;PCH CHADAPAUX;PCH CHADAPAUX;77000;OZOIR LA FERRIERE;48.7653;2.6690;ILE DE FRANCE;France;30 Avenue Henri Beaudelet;48.814000;3.083000;—;FOURNITURES
PCH CHADAPAUX;PCH CHADAPAUX;PCH CHADAPAUX;93000;MONTREUIL;48.8638;2.4480;ILE DE FRANCE;France;276B-280 Rue de Rosny;48.534000;2.628000;—;FOURNITURES
PCH CHADAPAUX;PCH CHADAPAUX;PCH CHADAPAUX;78000;GAZERAN;48.6350;1.7770;ILE DE FRANCE;France;ZA du Bel Air, 10 Rue de Cuteson;48.765000;2.679000;—;FOURNITURES
PCH CHADAPAUX;PCH CHADAPAUX;PCH CHADAPAUX;95000;HERBLAY SUR SEINE;48.9927;2.1635;ILE DE FRANCE;France;ZI Paul Langevin, 3 Avenue Paul Langevin;48.429000;2.755000;—;FOURNITURES
PCH CHADAPAUX;PCH CHADAPAUX;PCH CHADAPAUX;94000;BOISSY SAINT LEGER;48.7543;2.5120;ILE DE FRANCE;France;ZI La Haie Griselle, 3 Rue du 8 Mai 1945;48.754000;2.515000;—;FOURNITURES
PCH CHADAPAUX;PCH CHADAPAUX;PCH CHADAPAUX;75000;PARIS;48.8534951;2.3483915;ILE DE FRANCE;France;8 Rue du Dahomey;48.851118;2.382768;—;FOURNITURES
;;;77000;ACHERES LA FORET;48.35361;2.57028;ILE DE FRANCE;France;;;;;
;;;77000;AMILLIS;48.74028;3.13056;ILE DE FRANCE;France;;;;;
